[
  {
    "id": "IT-M101",
    "name": "A2A Lamarmora",
    "type": "metro",
    "geo": {
      "lat": 45.5216677,
      "lng": 10.2128527
    }
  },
  {
    "id": "IT-S05700",
    "name": "Abano Terme",
    "type": "rail",
    "geo": {
      "lat": 45.355339,
      "lng": 11.811421
    }
  },
  {
    "id": "IT-S01416",
    "name": "Abbadia Lariana",
    "type": "rail",
    "geo": {
      "lat": 45.895786,
      "lng": 9.335066
    }
  },
  {
    "id": "IT-S12873",
    "name": "Abbasanta",
    "type": "rail",
    "geo": {
      "lat": 40.126667,
      "lng": 8.816135
    }
  },
  {
    "id": "IT-S01728",
    "name": "Abbiate Guazzone",
    "type": "rail",
    "geo": {
      "lat": 45.701903,
      "lng": 8.918623
    }
  },
  {
    "id": "IT-S01062",
    "name": "Abbiategrasso",
    "type": "rail",
    "geo": {
      "lat": 45.397588,
      "lng": 8.920445
    }
  },
  {
    "id": "IT-M152",
    "name": "Abbiategrasso-Chiesa Rossa",
    "type": "metro",
    "geo": {
      "lat": 45.430014,
      "lng": 9.1773223
    }
  },
  {
    "id": "IT-S12409",
    "name": "Acate",
    "type": "rail",
    "geo": {
      "lat": 36.996732,
      "lng": 14.425544
    }
  },
  {
    "id": "IT-S07423",
    "name": "Acciano",
    "type": "rail",
    "geo": {
      "lat": 42.17675,
      "lng": 13.711102
    }
  },
  {
    "id": "IT-S09215",
    "name": "Acerra",
    "type": "rail",
    "geo": {
      "lat": 40.939861,
      "lng": 14.372859
    }
  },
  {
    "id": "IT-M11",
    "name": "Acilia",
    "type": "metro",
    "geo": {
      "lat": 41.7835343,
      "lng": 12.3608521
    }
  },
  {
    "id": "IT-M293",
    "name": "Acilia Sud - Dragona",
    "type": "metro",
    "geo": {
      "lat": 41.7760617,
      "lng": 12.3420465
    }
  },
  {
    "id": "IT-S12328",
    "name": "Acireale",
    "type": "rail",
    "geo": {
      "lat": 37.595831,
      "lng": 15.161525
    }
  },
  {
    "id": "IT-S08715",
    "name": "Acqua Acetosa",
    "type": "rail",
    "geo": {
      "lat": 41.93179,
      "lng": 12.487228
    }
  },
  {
    "id": "IT-S11722",
    "name": "Acquafredda",
    "type": "rail",
    "geo": {
      "lat": 40.035529,
      "lng": 15.671849
    }
  },
  {
    "id": "IT-S09798",
    "name": "Acquamela",
    "type": "rail",
    "geo": {
      "lat": 40.733401,
      "lng": 14.772197
    }
  },
  {
    "id": "IT-S01913",
    "name": "Acquanegra Cremonese",
    "type": "rail",
    "geo": {
      "lat": 45.17194,
      "lng": 9.888607
    }
  },
  {
    "id": "IT-S11736",
    "name": "Acquappesa",
    "type": "rail",
    "geo": {
      "lat": 39.48648,
      "lng": 15.955992
    }
  },
  {
    "id": "IT-S07978",
    "name": "Acquasparta",
    "type": "rail",
    "geo": {
      "lat": 42.70376,
      "lng": 12.54077
    }
  },
  {
    "id": "IT-S12209",
    "name": "Acquaviva Casteltermini",
    "type": "rail",
    "geo": {
      "lat": 37.569819,
      "lng": 13.674932
    }
  },
  {
    "id": "IT-S11504",
    "name": "Acquaviva delle Fonti",
    "type": "rail",
    "geo": {
      "lat": 40.892867,
      "lng": 16.839915
    }
  },
  {
    "id": "IT-S12026",
    "name": "Acquedolci-s.fratello",
    "type": "rail",
    "geo": {
      "lat": 38.058459,
      "lng": 14.587597
    }
  },
  {
    "id": "IT-S00867",
    "name": "Acqui Terme",
    "type": "rail",
    "geo": {
      "lat": 44.672534,
      "lng": 8.473459
    }
  },
  {
    "id": "IT-S11907",
    "name": "Acri Bisignano Luzzi",
    "type": "rail",
    "geo": {
      "lat": 39.441389,
      "lng": 16.245177
    }
  },
  {
    "id": "IT-S13098",
    "name": "Adelfia",
    "type": "rail"
  },
  {
    "id": "IT-S05420",
    "name": "Adria",
    "type": "rail",
    "geo": {
      "lat": 45.060506,
      "lng": 12.05423
    }
  },
  {
    "id": "IT-M166",
    "name": "Affori Centro",
    "type": "metro",
    "geo": {
      "lat": 45.5135394,
      "lng": 9.1739662
    }
  },
  {
    "id": "IT-M52",
    "name": "Affori FN",
    "type": "metro",
    "geo": {
      "lat": 45.5216145,
      "lng": 9.1682909
    }
  },
  {
    "id": "IT-S11872",
    "name": "Africo Nuovo",
    "type": "rail",
    "geo": {
      "lat": 38.052651,
      "lng": 16.143902
    }
  },
  {
    "id": "IT-S00804",
    "name": "Agliano Castelnuovo Calcea",
    "type": "rail",
    "geo": {
      "lat": 44.786112,
      "lng": 8.267733
    }
  },
  {
    "id": "IT-S12342",
    "name": "Agnone di S.",
    "type": "rail",
    "geo": {
      "lat": 37.305203,
      "lng": 15.077155
    }
  },
  {
    "id": "IT-S00075",
    "name": "Agognate",
    "type": "rail",
    "geo": {
      "lat": 45.47092,
      "lng": 8.58017
    }
  },
  {
    "id": "IT-S12213",
    "name": "Agrigento Bassa",
    "type": "rail",
    "geo": {
      "lat": 37.319244,
      "lng": 13.58812
    }
  },
  {
    "id": "IT-S12216",
    "name": "Agrigento Centrale",
    "type": "rail",
    "geo": {
      "lat": 37.309079,
      "lng": 13.584723
    }
  },
  {
    "id": "IT-S11705",
    "name": "Agropoli Castellabate",
    "type": "rail",
    "geo": {
      "lat": 40.351642,
      "lng": 15.001761
    }
  },
  {
    "id": "IT-S08550",
    "name": "Aielli",
    "type": "rail",
    "geo": {
      "lat": 42.062191,
      "lng": 13.581246
    }
  },
  {
    "id": "IT-S00514",
    "name": "Airasca",
    "type": "rail",
    "geo": {
      "lat": 44.927944,
      "lng": 7.483395
    }
  },
  {
    "id": "IT-S04481",
    "name": "Airole",
    "type": "rail",
    "geo": {
      "lat": 43.870478,
      "lng": 7.552975
    }
  },
  {
    "id": "IT-S01515",
    "name": "Airuno",
    "type": "rail",
    "geo": {
      "lat": 45.755491,
      "lng": 9.422322
    }
  },
  {
    "id": "IT-S02049",
    "name": "Ala",
    "type": "rail",
    "geo": {
      "lat": 45.7591,
      "lng": 10.996496
    }
  },
  {
    "id": "IT-S07708",
    "name": "Alanno",
    "type": "rail",
    "geo": {
      "lat": 42.287264,
      "lng": 14.019411
    }
  },
  {
    "id": "IT-S02566",
    "name": "Alano Fener Valdobbiadene",
    "type": "rail",
    "geo": {
      "lat": 45.90229,
      "lng": 11.944546
    }
  },
  {
    "id": "IT-S04515",
    "name": "Alassio",
    "type": "rail",
    "geo": {
      "lat": 44.007832,
      "lng": 8.171559
    }
  },
  {
    "id": "IT-S00825",
    "name": "Alba",
    "type": "rail",
    "geo": {
      "lat": 44.697811,
      "lng": 8.030866
    }
  },
  {
    "id": "IT-S07800",
    "name": "Alba Adriatica-nereto-controguerra",
    "type": "rail",
    "geo": {
      "lat": 42.83446,
      "lng": 13.917295
    }
  },
  {
    "id": "IT-S07207",
    "name": "Albacina",
    "type": "rail",
    "geo": {
      "lat": 43.345686,
      "lng": 12.986501
    }
  },
  {
    "id": "IT-S01059",
    "name": "Albairate-vermezzo",
    "type": "rail",
    "geo": {
      "lat": 45.404354,
      "lng": 8.958227
    }
  },
  {
    "id": "IT-S11453",
    "name": "Albano di Lucania",
    "type": "rail",
    "geo": {
      "lat": 40.574768,
      "lng": 16.021373
    }
  },
  {
    "id": "IT-S08704",
    "name": "Albano Laziale",
    "type": "rail",
    "geo": {
      "lat": 41.726443,
      "lng": 12.658123
    }
  },
  {
    "id": "IT-S01534",
    "name": "Albano S.alessandro",
    "type": "rail",
    "geo": {
      "lat": 45.683,
      "lng": 9.76759
    }
  },
  {
    "id": "IT-S09004",
    "name": "Albanova",
    "type": "rail",
    "geo": {
      "lat": 40.996266,
      "lng": 14.128559
    }
  },
  {
    "id": "IT-S02538",
    "name": "Albaredo",
    "type": "rail",
    "geo": {
      "lat": 45.670196,
      "lng": 12.015108
    }
  },
  {
    "id": "IT-S01450",
    "name": "Albate-trecallo",
    "type": "rail",
    "geo": {
      "lat": 45.777537,
      "lng": 9.095826
    }
  },
  {
    "id": "IT-S04516",
    "name": "Albenga",
    "type": "rail",
    "geo": {
      "lat": 44.047378,
      "lng": 8.2214
    }
  },
  {
    "id": "IT-S08001",
    "name": "Alberese",
    "type": "rail",
    "geo": {
      "lat": 42.634158,
      "lng": 11.1352
    }
  },
  {
    "id": "IT-S06067",
    "name": "Albergo",
    "type": "rail",
    "geo": {
      "lat": -9.019376,
      "lng": 4.511247
    }
  },
  {
    "id": "IT-S13126",
    "name": "Alberobello",
    "type": "rail"
  },
  {
    "id": "IT-S08003",
    "name": "Albinia",
    "type": "rail",
    "geo": {
      "lat": 42.502251,
      "lng": 11.211509
    }
  },
  {
    "id": "IT-S04529",
    "name": "Albisola",
    "type": "rail",
    "geo": {
      "lat": 44.33469,
      "lng": 8.5121
    }
  },
  {
    "id": "IT-S01209",
    "name": "Albizzate Solbiate Arno",
    "type": "rail",
    "geo": {
      "lat": 45.723289,
      "lng": 8.806117
    }
  },
  {
    "id": "IT-S00033",
    "name": "Albonese",
    "type": "rail",
    "geo": {
      "lat": 45.297792,
      "lng": 8.714606
    }
  },
  {
    "id": "IT-S01863",
    "name": "Albuzzano",
    "type": "rail",
    "geo": {
      "lat": 45.17238,
      "lng": 9.26174
    }
  },
  {
    "id": "IT-S12116",
    "name": "Alcamo",
    "type": "rail",
    "geo": {
      "lat": 37.93891,
      "lng": 12.926125
    }
  },
  {
    "id": "IT-S12150",
    "name": "Alcamo Diramazione",
    "type": "rail",
    "geo": {
      "lat": 37.978682,
      "lng": 12.915923
    }
  },
  {
    "id": "IT-S12320",
    "name": "Alcantara",
    "type": "rail",
    "geo": {
      "lat": 37.821454,
      "lng": 15.251161
    }
  },
  {
    "id": "IT-S00470",
    "name": "Alessandria",
    "type": "rail",
    "geo": {
      "lat": 44.908807,
      "lng": 8.607571
    }
  },
  {
    "id": "IT-M93",
    "name": "Alessandrino",
    "type": "metro",
    "geo": {
      "lat": 41.8712904,
      "lng": 12.5788298
    }
  },
  {
    "id": "IT-S13192",
    "name": "Alessano Corsano",
    "type": "rail"
  },
  {
    "id": "IT-S13171",
    "name": "Alezio",
    "type": "rail"
  },
  {
    "id": "IT-S08908",
    "name": "Alfedena-scontrone",
    "type": "rail",
    "geo": {
      "lat": 41.738518,
      "lng": 14.045086
    }
  },
  {
    "id": "IT-S05808",
    "name": "Alfonsine",
    "type": "rail",
    "geo": {
      "lat": 44.512364,
      "lng": 12.039155
    }
  },
  {
    "id": "IT-S12310",
    "name": "Ali' Terme",
    "type": "rail",
    "geo": {
      "lat": 38.005116,
      "lng": 15.423676
    }
  },
  {
    "id": "IT-S00809",
    "name": "Alice Belcolle",
    "type": "rail",
    "geo": {
      "lat": 44.722643,
      "lng": 8.440083
    }
  },
  {
    "id": "IT-S09020",
    "name": "Alife",
    "type": "rail",
    "geo": {
      "lat": -9.019376,
      "lng": 4.511247
    }
  },
  {
    "id": "IT-S08202",
    "name": "Allerona-castel Viscardo",
    "type": "rail",
    "geo": {
      "lat": 42.784702,
      "lng": 12.035633
    }
  },
  {
    "id": "IT-S00216",
    "name": "Alpignano",
    "type": "rail",
    "geo": {
      "lat": 45.091278,
      "lng": 7.523874
    }
  },
  {
    "id": "IT-S11307",
    "name": "Altamura",
    "type": "rail",
    "geo": {
      "lat": 40.838,
      "lng": 16.551667
    }
  },
  {
    "id": "IT-S04810",
    "name": "Altare",
    "type": "rail",
    "geo": {
      "lat": 44.33617,
      "lng": 8.332753
    }
  },
  {
    "id": "IT-S09511",
    "name": "Altavilla Irpina",
    "type": "rail",
    "geo": {
      "lat": 41.015163,
      "lng": 14.784842
    }
  },
  {
    "id": "IT-S12011",
    "name": "Altavilla Milicia",
    "type": "rail",
    "geo": {
      "lat": 38.048194,
      "lng": 13.554273
    }
  },
  {
    "id": "IT-S02444",
    "name": "Altavilla Tavernelle",
    "type": "rail",
    "geo": {
      "lat": 45.511801,
      "lng": 11.454374
    }
  },
  {
    "id": "IT-S06407",
    "name": "Altopascio",
    "type": "rail",
    "geo": {
      "lat": 43.817416,
      "lng": 10.672758
    }
  },
  {
    "id": "IT-S08206",
    "name": "Alviano",
    "type": "rail",
    "geo": {
      "lat": 42.591816,
      "lng": 12.25959
    }
  },
  {
    "id": "IT-S09023",
    "name": "Alvignano",
    "type": "rail",
    "geo": {
      "lat": -9.019376,
      "lng": 4.511247
    }
  },
  {
    "id": "IT-S11744",
    "name": "Amantea",
    "type": "rail",
    "geo": {
      "lat": 39.134384,
      "lng": 16.068673
    }
  },
  {
    "id": "IT-S01527",
    "name": "Ambivere Mapello",
    "type": "rail",
    "geo": {
      "lat": 45.72215,
      "lng": 9.55022
    }
  },
  {
    "id": "IT-S11051",
    "name": "Amendola",
    "type": "rail",
    "geo": {
      "lat": 41.518025,
      "lng": 15.732569
    }
  },
  {
    "id": "IT-M231",
    "name": "Amendola",
    "type": "metro",
    "geo": {
      "lat": 45.4736967,
      "lng": 9.1509963
    }
  },
  {
    "id": "IT-S11807",
    "name": "Amendolara Oriolo",
    "type": "rail",
    "geo": {
      "lat": 39.933823,
      "lng": 16.602897
    }
  },
  {
    "id": "IT-S09306",
    "name": "Amorosi Melizzano",
    "type": "rail",
    "geo": {
      "lat": 41.192896,
      "lng": 14.47916
    }
  },
  {
    "id": "IT-S08658",
    "name": "Anagni-fiuggi",
    "type": "rail",
    "geo": {
      "lat": 41.710463,
      "lng": 13.096092
    }
  },
  {
    "id": "IT-M324",
    "name": "Anagnina",
    "type": "metro",
    "geo": {
      "lat": 41.8427897,
      "lng": 12.5860901
    }
  },
  {
    "id": "IT-S07113",
    "name": "Ancona",
    "type": "rail",
    "geo": {
      "lat": 43.607447,
      "lng": 13.497719
    }
  },
  {
    "id": "IT-S07116",
    "name": "Ancona Marittima",
    "type": "rail",
    "geo": {
      "lat": 43.619445,
      "lng": 13.50911
    }
  },
  {
    "id": "IT-S07114",
    "name": "Ancona Stadio",
    "type": "rail",
    "geo": {
      "lat": 43.566416,
      "lng": 13.520808
    }
  },
  {
    "id": "IT-S07015",
    "name": "Ancona Torrette",
    "type": "rail",
    "geo": {
      "lat": 43.609936,
      "lng": 13.455777
    }
  },
  {
    "id": "IT-S02141",
    "name": "Anconetta",
    "type": "rail",
    "geo": {
      "lat": 45.565122,
      "lng": 11.567805
    }
  },
  {
    "id": "IT-S04525",
    "name": "Andora",
    "type": "rail",
    "geo": {
      "lat": 43.960409,
      "lng": 8.13888
    }
  },
  {
    "id": "IT-S13188",
    "name": "Andrano-castiglione",
    "type": "rail"
  },
  {
    "id": "IT-S09031",
    "name": "Anfiteatro",
    "type": "rail",
    "geo": {
      "lat": 41.082491,
      "lng": 14.25479
    }
  },
  {
    "id": "IT-S09812",
    "name": "Angri",
    "type": "rail",
    "geo": {
      "lat": 40.746313,
      "lng": 14.575426
    }
  },
  {
    "id": "IT-S08318",
    "name": "Anguillara",
    "type": "rail",
    "geo": {
      "lat": 42.067217,
      "lng": 12.293355
    }
  },
  {
    "id": "IT-S11870",
    "name": "Anna'",
    "type": "rail",
    "geo": {
      "lat": 37.925605,
      "lng": 15.748079
    }
  },
  {
    "id": "IT-S02769",
    "name": "Annone Veneto",
    "type": "rail",
    "geo": {
      "lat": 45.774745,
      "lng": 12.680345
    }
  },
  {
    "id": "IT-S06727",
    "name": "Antignano",
    "type": "rail",
    "geo": {
      "lat": 43.495476,
      "lng": 10.329099
    }
  },
  {
    "id": "IT-S07408",
    "name": "Antrodoco Borgo Velino",
    "type": "rail",
    "geo": {
      "lat": 42.409964,
      "lng": 13.070861
    }
  },
  {
    "id": "IT-S07435",
    "name": "Antrodoco Centro",
    "type": "rail",
    "geo": {
      "lat": 42.415376,
      "lng": 13.076357
    }
  },
  {
    "id": "IT-S08537",
    "name": "Anversa-villalago-scanno",
    "type": "rail",
    "geo": {
      "lat": 42.017352,
      "lng": 13.835857
    }
  },
  {
    "id": "IT-S01453",
    "name": "Anzano del Parco",
    "type": "rail",
    "geo": {
      "lat": 45.76505,
      "lng": 9.20268
    }
  },
  {
    "id": "IT-S08709",
    "name": "Anzio",
    "type": "rail",
    "geo": {
      "lat": 41.452068,
      "lng": 12.62936
    }
  },
  {
    "id": "IT-S08713",
    "name": "Anzio Colonia",
    "type": "rail",
    "geo": {
      "lat": 41.461801,
      "lng": 12.615936
    }
  },
  {
    "id": "IT-S05386",
    "name": "Anzola Dell'emilia",
    "type": "rail",
    "geo": {
      "lat": 44.550943,
      "lng": 11.196603
    }
  },
  {
    "id": "IT-S00137",
    "name": "Aosta",
    "type": "rail",
    "geo": {
      "lat": 45.734316,
      "lng": 7.322313
    }
  },
  {
    "id": "IT-S00143",
    "name": "Aosta Istituto",
    "type": "rail",
    "geo": {
      "lat": 45.732938,
      "lng": 7.303076
    }
  },
  {
    "id": "IT-S00146",
    "name": "Aosta Viale Europa",
    "type": "rail",
    "geo": {
      "lat": 45.732544,
      "lng": 7.295942
    }
  },
  {
    "id": "IT-S09314",
    "name": "Apice S.arcangelo Bonito",
    "type": "rail",
    "geo": {
      "lat": 41.140867,
      "lng": 14.918867
    }
  },
  {
    "id": "IT-S08328",
    "name": "Appiano",
    "type": "rail",
    "geo": {
      "lat": 41.911322,
      "lng": 12.438716
    }
  },
  {
    "id": "IT-S11024",
    "name": "Apricena",
    "type": "rail",
    "geo": {
      "lat": 41.779016,
      "lng": 15.445426
    }
  },
  {
    "id": "IT-S11675",
    "name": "Apricena Citta'",
    "type": "rail",
    "geo": {
      "lat": 41.770669,
      "lng": 15.375275
    }
  },
  {
    "id": "IT-S08705",
    "name": "Aprilia",
    "type": "rail",
    "geo": {
      "lat": 41.59217,
      "lng": 12.6393
    }
  },
  {
    "id": "IT-S09623",
    "name": "Aquilonia",
    "type": "rail",
    "geo": {
      "lat": 40.940252,
      "lng": 15.541249
    }
  },
  {
    "id": "IT-S12370",
    "name": "Aragona Caldare",
    "type": "rail",
    "geo": {
      "lat": 37.381194,
      "lng": 13.636886
    }
  },
  {
    "id": "IT-M79",
    "name": "Aranceto",
    "type": "metro",
    "geo": {
      "lat": 38.8391924,
      "lng": 16.611441
    }
  },
  {
    "id": "IT-S06811",
    "name": "Arbia",
    "type": "rail",
    "geo": {
      "lat": 43.294363,
      "lng": 11.406229
    }
  },
  {
    "id": "IT-S09838",
    "name": "Arbostella",
    "type": "rail",
    "geo": {
      "lat": 40.651695,
      "lng": 14.813146
    }
  },
  {
    "id": "IT-S08861",
    "name": "Arce",
    "type": "rail",
    "geo": {
      "lat": 41.583305,
      "lng": 13.571856
    }
  },
  {
    "id": "IT-S01608",
    "name": "Arcene",
    "type": "rail",
    "geo": {
      "lat": 45.57445,
      "lng": 9.60543
    }
  },
  {
    "id": "IT-S07992",
    "name": "Archi",
    "type": "rail"
  },
  {
    "id": "IT-S01203",
    "name": "Arcisate",
    "type": "rail",
    "geo": {
      "lat": 45.85857,
      "lng": 8.86292
    }
  },
  {
    "id": "IT-M316",
    "name": "Arco di Travertino",
    "type": "metro",
    "geo": {
      "lat": 41.8660784,
      "lng": 12.5358014
    }
  },
  {
    "id": "IT-M288",
    "name": "Arco Mirelli",
    "type": "metro",
    "geo": {
      "lat": 40.8325441,
      "lng": 14.2266946
    }
  },
  {
    "id": "IT-S06006",
    "name": "Arcola",
    "type": "rail",
    "geo": {
      "lat": 44.118652,
      "lng": 9.91465
    }
  },
  {
    "id": "IT-S01510",
    "name": "Arcore",
    "type": "rail",
    "geo": {
      "lat": 45.623773,
      "lng": 9.322924
    }
  },
  {
    "id": "IT-S12817",
    "name": "Ardara",
    "type": "rail",
    "geo": {
      "lat": 40.632139,
      "lng": 8.818996
    }
  },
  {
    "id": "IT-S01427",
    "name": "Ardenno Masino",
    "type": "rail",
    "geo": {
      "lat": 46.16159,
      "lng": 9.65066
    }
  },
  {
    "id": "IT-S11853",
    "name": "Ardore",
    "type": "rail",
    "geo": {
      "lat": 38.17577,
      "lng": 16.207224
    }
  },
  {
    "id": "IT-S09839",
    "name": "Arechi",
    "type": "rail",
    "geo": {
      "lat": 40.648177,
      "lng": 14.824859
    }
  },
  {
    "id": "IT-S01947",
    "name": "Arena Po",
    "type": "rail",
    "geo": {
      "lat": 45.082171,
      "lng": 9.360318
    }
  },
  {
    "id": "IT-S04533",
    "name": "Arenzano",
    "type": "rail",
    "geo": {
      "lat": 44.403089,
      "lng": 8.678532
    }
  },
  {
    "id": "IT-S06915",
    "name": "Arezzo",
    "type": "rail",
    "geo": {
      "lat": 43.461174,
      "lng": 11.875681
    }
  },
  {
    "id": "IT-S06086",
    "name": "Arezzo Casello 1",
    "type": "rail",
    "geo": {
      "lat": 43.470718,
      "lng": 11.874621
    }
  },
  {
    "id": "IT-S06063",
    "name": "Arezzo Pescaiola",
    "type": "rail",
    "geo": {
      "lat": 43.461716,
      "lng": 11.874176
    }
  },
  {
    "id": "IT-S05804",
    "name": "Argenta",
    "type": "rail",
    "geo": {
      "lat": 44.61681,
      "lng": 11.84127
    }
  },
  {
    "id": "IT-M254",
    "name": "Argonne",
    "type": "metro",
    "geo": {
      "lat": 45.4680992,
      "lng": 9.2319145
    }
  },
  {
    "id": "IT-S09316",
    "name": "Ariano Irpino",
    "type": "rail",
    "geo": {
      "lat": 41.181907,
      "lng": 15.117642
    }
  },
  {
    "id": "IT-S01020",
    "name": "Arona",
    "type": "rail",
    "geo": {
      "lat": 45.755399,
      "lng": 8.559082
    }
  },
  {
    "id": "IT-S01092",
    "name": "Arosio",
    "type": "rail",
    "geo": {
      "lat": 45.718372,
      "lng": 9.210269
    }
  },
  {
    "id": "IT-S09017",
    "name": "Arpaia",
    "type": "rail",
    "geo": {
      "lat": -9.019376,
      "lng": 4.511247
    }
  },
  {
    "id": "IT-S08859",
    "name": "Arpino",
    "type": "rail",
    "geo": {
      "lat": 41.647896,
      "lng": 13.599597
    }
  },
  {
    "id": "IT-S05707",
    "name": "Arqua'",
    "type": "rail",
    "geo": {
      "lat": 45.006494,
      "lng": 11.748422
    }
  },
  {
    "id": "IT-S04207",
    "name": "Arquata Scrivia",
    "type": "rail",
    "geo": {
      "lat": 44.692234,
      "lng": 8.885006
    }
  },
  {
    "id": "IT-S08516",
    "name": "Arsoli",
    "type": "rail",
    "geo": {
      "lat": 42.045868,
      "lng": 13.013312
    }
  },
  {
    "id": "IT-S03021",
    "name": "Artegna",
    "type": "rail",
    "geo": {
      "lat": 46.231321,
      "lng": 13.162441
    }
  },
  {
    "id": "IT-S01779",
    "name": "Artogne - Gianico",
    "type": "rail",
    "geo": {
      "lat": 45.858661,
      "lng": 10.15896
    }
  },
  {
    "id": "IT-S00134",
    "name": "Arvier",
    "type": "rail",
    "geo": {
      "lat": 45.704259,
      "lng": 7.166681
    }
  },
  {
    "id": "IT-S02841",
    "name": "Arzergrande",
    "type": "rail",
    "geo": {
      "lat": 45.274767,
      "lng": 12.039716
    }
  },
  {
    "id": "IT-S11711",
    "name": "Ascea",
    "type": "rail",
    "geo": {
      "lat": 40.141023,
      "lng": 15.172334
    }
  },
  {
    "id": "IT-S06813",
    "name": "Asciano",
    "type": "rail",
    "geo": {
      "lat": 43.235325,
      "lng": 11.579148
    }
  },
  {
    "id": "IT-S06825",
    "name": "Asciano Monte Oliveto Maggiore",
    "type": "rail",
    "geo": {
      "lat": 43.231731,
      "lng": 11.563485
    }
  },
  {
    "id": "IT-S07550",
    "name": "Ascoli Piceno",
    "type": "rail",
    "geo": {
      "lat": 42.855352,
      "lng": 13.587965
    }
  },
  {
    "id": "IT-S11203",
    "name": "Ascoli Satriano",
    "type": "rail",
    "geo": {
      "lat": 41.220534,
      "lng": 15.548542
    }
  },
  {
    "id": "IT-S01847",
    "name": "Asola",
    "type": "rail",
    "geo": {
      "lat": 45.220492,
      "lng": 10.402497
    }
  },
  {
    "id": "IT-M48",
    "name": "Assago Milanofiori Forum",
    "type": "metro",
    "geo": {
      "lat": 45.4018117,
      "lng": 9.1455762
    }
  },
  {
    "id": "IT-M47",
    "name": "Assago Milanofiori Nord",
    "type": "metro",
    "geo": {
      "lat": 45.4094526,
      "lng": 9.1500362
    }
  },
  {
    "id": "IT-S12889",
    "name": "Assemini",
    "type": "rail",
    "geo": {
      "lat": 39.287733,
      "lng": 8.998091
    }
  },
  {
    "id": "IT-S12809",
    "name": "Assemini Carmine",
    "type": "rail",
    "geo": {
      "lat": 39.281795,
      "lng": 9.013726
    }
  },
  {
    "id": "IT-S12808",
    "name": "Assemini S.lucia",
    "type": "rail",
    "geo": {
      "lat": 39.290977,
      "lng": 8.989268
    }
  },
  {
    "id": "IT-S07008",
    "name": "Assisi",
    "type": "rail",
    "geo": {
      "lat": 43.059072,
      "lng": 12.585346
    }
  },
  {
    "id": "IT-S01101",
    "name": "Asso",
    "type": "rail",
    "geo": {
      "lat": 45.855228,
      "lng": 9.268513
    }
  },
  {
    "id": "IT-S00462",
    "name": "Asti",
    "type": "rail",
    "geo": {
      "lat": 44.895102,
      "lng": 8.208016
    }
  },
  {
    "id": "IT-S07998",
    "name": "Ateleta",
    "type": "rail",
    "geo": {
      "lat": 41.862113,
      "lng": 14.239204
    }
  },
  {
    "id": "IT-S09904",
    "name": "Atena",
    "type": "rail",
    "geo": {
      "lat": 40.456676,
      "lng": 15.536094
    }
  },
  {
    "id": "IT-S08207",
    "name": "Attigliano-bomarzo",
    "type": "rail",
    "geo": {
      "lat": 42.517967,
      "lng": 12.294663
    }
  },
  {
    "id": "IT-S12345",
    "name": "Augusta",
    "type": "rail",
    "geo": {
      "lat": 37.24334,
      "lng": 15.218628
    }
  },
  {
    "id": "IT-M44",
    "name": "Augusto",
    "type": "metro",
    "geo": {
      "lat": 40.8261854,
      "lng": 14.1983167
    }
  },
  {
    "id": "IT-S09902",
    "name": "Auletta",
    "type": "rail",
    "geo": {
      "lat": 40.534934,
      "lng": 15.426706
    }
  },
  {
    "id": "IT-S06168",
    "name": "Aulla",
    "type": "rail",
    "geo": {
      "lat": 44.209662,
      "lng": 9.970632
    }
  },
  {
    "id": "IT-S06013",
    "name": "Aulla Lunigiana",
    "type": "rail",
    "geo": {
      "lat": 44.218808,
      "lng": 9.976893
    }
  },
  {
    "id": "IT-S03550",
    "name": "Aurisina",
    "type": "rail",
    "geo": {
      "lat": 45.753943,
      "lng": 13.687706
    }
  },
  {
    "id": "IT-S09514",
    "name": "Avellino",
    "type": "rail",
    "geo": {
      "lat": 40.921446,
      "lng": 14.820326
    }
  },
  {
    "id": "IT-S09006",
    "name": "Aversa",
    "type": "rail",
    "geo": {
      "lat": 40.973237,
      "lng": 14.218109
    }
  },
  {
    "id": "IT-M150",
    "name": "Aversa Centro",
    "type": "metro",
    "geo": {
      "lat": 40.9740846,
      "lng": 14.2136486
    }
  },
  {
    "id": "IT-M149",
    "name": "Aversa Ippodromo",
    "type": "metro",
    "geo": {
      "lat": 40.960825,
      "lng": 14.2107877
    }
  },
  {
    "id": "IT-S08526",
    "name": "Avezzano",
    "type": "rail",
    "geo": {
      "lat": 42.039379,
      "lng": 13.42664
    }
  },
  {
    "id": "IT-S03087",
    "name": "Aviano",
    "type": "rail",
    "geo": {
      "lat": 46.064218,
      "lng": 12.590688
    }
  },
  {
    "id": "IT-S00214",
    "name": "Avigliana",
    "type": "rail",
    "geo": {
      "lat": 45.085225,
      "lng": 7.401137
    }
  },
  {
    "id": "IT-S11214",
    "name": "Avigliano Lucania",
    "type": "rail",
    "geo": {
      "lat": 40.714549,
      "lng": 15.785431
    }
  },
  {
    "id": "IT-S02050",
    "name": "Avio",
    "type": "rail",
    "geo": {
      "lat": 45.733752,
      "lng": 10.956027
    }
  },
  {
    "id": "IT-S00133",
    "name": "Avise",
    "type": "rail",
    "geo": {
      "lat": 45.706296,
      "lng": 7.131285
    }
  },
  {
    "id": "IT-S12426",
    "name": "Avola",
    "type": "rail",
    "geo": {
      "lat": 36.907486,
      "lng": 15.12593
    }
  },
  {
    "id": "IT-S06081",
    "name": "Baciano",
    "type": "rail",
    "geo": {
      "lat": -9.019376,
      "lng": 4.511247
    }
  },
  {
    "id": "IT-S06826",
    "name": "Badesse",
    "type": "rail",
    "geo": {
      "lat": 43.385605,
      "lng": 11.272982
    }
  },
  {
    "id": "IT-S02370",
    "name": "Badia Polesine",
    "type": "rail",
    "geo": {
      "lat": 45.094411,
      "lng": 11.484732
    }
  },
  {
    "id": "IT-S11841",
    "name": "Badolato",
    "type": "rail",
    "geo": {
      "lat": 38.572233,
      "lng": 16.567582
    }
  },
  {
    "id": "IT-S05185",
    "name": "Baggiovara",
    "type": "rail"
  },
  {
    "id": "IT-S05186",
    "name": "Baggiovara Ospedale",
    "type": "rail"
  },
  {
    "id": "IT-S12008",
    "name": "Bagheria",
    "type": "rail",
    "geo": {
      "lat": 38.089727,
      "lng": 13.507384
    }
  },
  {
    "id": "IT-S05902",
    "name": "Bagnacavallo",
    "type": "rail",
    "geo": {
      "lat": 44.41208,
      "lng": 11.96941
    }
  },
  {
    "id": "IT-S11770",
    "name": "Bagnara",
    "type": "rail",
    "geo": {
      "lat": 38.282695,
      "lng": 15.800327
    }
  },
  {
    "id": "IT-S03123",
    "name": "Bagnaria Arsa",
    "type": "rail",
    "geo": {
      "lat": 45.885513,
      "lng": 13.282026
    }
  },
  {
    "id": "IT-S00921",
    "name": "Bagnasco",
    "type": "rail",
    "geo": {
      "lat": 44.303264,
      "lng": 8.046132
    }
  },
  {
    "id": "IT-S06308",
    "name": "Bagni di Lucca",
    "type": "rail",
    "geo": {
      "lat": 44.003449,
      "lng": 10.551634
    }
  },
  {
    "id": "IT-S08504",
    "name": "Bagni di Tivoli",
    "type": "rail",
    "geo": {
      "lat": 41.949727,
      "lng": 12.722241
    }
  },
  {
    "id": "IT-S09102",
    "name": "Bagnoli Agnano Terme",
    "type": "rail",
    "geo": {
      "lat": 40.819357,
      "lng": 14.166708
    }
  },
  {
    "id": "IT-S09613",
    "name": "Bagnoli Irpino",
    "type": "rail",
    "geo": {
      "lat": 40.83917,
      "lng": 15.06324
    }
  },
  {
    "id": "IT-S13196",
    "name": "Bagnolo del Salento",
    "type": "rail"
  },
  {
    "id": "IT-S05946",
    "name": "Bagnolo in Piano",
    "type": "rail"
  },
  {
    "id": "IT-S01901",
    "name": "Bagnolo Mella",
    "type": "rail",
    "geo": {
      "lat": 45.428391,
      "lng": 10.183755
    }
  },
  {
    "id": "IT-S05945",
    "name": "Bagnolo Soave",
    "type": "rail"
  },
  {
    "id": "IT-S07224",
    "name": "Baiano di Spoleto",
    "type": "rail",
    "geo": {
      "lat": 42.726158,
      "lng": 12.663832
    }
  },
  {
    "id": "IT-S00094",
    "name": "Balangero",
    "type": "rail",
    "geo": {
      "lat": 45.265633,
      "lng": 7.519423
    }
  },
  {
    "id": "IT-S07964",
    "name": "Balanzano",
    "type": "rail",
    "geo": {
      "lat": 43.612344,
      "lng": 11.864009
    }
  },
  {
    "id": "IT-S00460",
    "name": "Baldichieri-tigliole",
    "type": "rail",
    "geo": {
      "lat": 44.899299,
      "lng": 8.091182
    }
  },
  {
    "id": "IT-M317",
    "name": "Baldo degli Ubaldi",
    "type": "metro",
    "geo": {
      "lat": 41.8990319,
      "lng": 12.4335844
    }
  },
  {
    "id": "IT-S13144",
    "name": "Balerna",
    "type": "rail",
    "geo": {
      "lat": 45.837564,
      "lng": 9
    }
  },
  {
    "id": "IT-S12122",
    "name": "Balestrate",
    "type": "rail",
    "geo": {
      "lat": 38.05313,
      "lng": 13.007384
    }
  },
  {
    "id": "IT-S08856",
    "name": "Balsorano",
    "type": "rail",
    "geo": {
      "lat": 41.809517,
      "lng": 13.55675
    }
  },
  {
    "id": "IT-S09830",
    "name": "Balvano Ricigliano",
    "type": "rail",
    "geo": {
      "lat": 40.649965,
      "lng": 15.495441
    }
  },
  {
    "id": "IT-S00178",
    "name": "Balzola",
    "type": "rail",
    "geo": {
      "lat": 45.174117,
      "lng": 8.400747
    }
  },
  {
    "id": "IT-M221",
    "name": "Bande Nere",
    "type": "metro",
    "geo": {
      "lat": 45.461524,
      "lng": 9.1364657
    }
  },
  {
    "id": "IT-S00732",
    "name": "Bandito",
    "type": "rail",
    "geo": {
      "lat": 44.722041,
      "lng": 7.819398
    }
  },
  {
    "id": "IT-S09832",
    "name": "Baragiano-ruoti",
    "type": "rail",
    "geo": {
      "lat": 40.694148,
      "lng": 15.570943
    }
  },
  {
    "id": "IT-S09458",
    "name": "Baranello",
    "type": "rail",
    "geo": {
      "lat": 41.517818,
      "lng": 14.596604
    }
  },
  {
    "id": "IT-S01741",
    "name": "Barasso - Comerio",
    "type": "rail",
    "geo": {
      "lat": 45.835268,
      "lng": 8.751036
    }
  },
  {
    "id": "IT-M308",
    "name": "Barberini",
    "type": "metro",
    "geo": {
      "lat": 41.9038098,
      "lng": 12.4886166
    }
  },
  {
    "id": "IT-S06806",
    "name": "Barberino di Val D'elsa",
    "type": "rail",
    "geo": {
      "lat": 43.499343,
      "lng": 11.111233
    }
  },
  {
    "id": "IT-S01932",
    "name": "Barbianello",
    "type": "rail",
    "geo": {
      "lat": 45.07231,
      "lng": 9.20552
    }
  },
  {
    "id": "IT-S05905",
    "name": "Barbiano",
    "type": "rail",
    "geo": {
      "lat": 44.3872,
      "lng": 11.87809
    }
  },
  {
    "id": "IT-S12971",
    "name": "Barbusi",
    "type": "rail",
    "geo": {
      "lat": 39.203024,
      "lng": 8.501702
    }
  },
  {
    "id": "IT-S12041",
    "name": "Barcellona-castroreale",
    "type": "rail",
    "geo": {
      "lat": 38.153786,
      "lng": 15.199627
    }
  },
  {
    "id": "IT-S05929",
    "name": "Barco",
    "type": "rail"
  },
  {
    "id": "IT-S00202",
    "name": "Bardonecchia",
    "type": "rail",
    "geo": {
      "lat": 45.07636,
      "lng": 6.709861
    }
  },
  {
    "id": "IT-S06303",
    "name": "Barga Gallicano",
    "type": "rail",
    "geo": {
      "lat": 44.068128,
      "lng": 10.452198
    }
  },
  {
    "id": "IT-S13094",
    "name": "Bari Ceglie-carbonara",
    "type": "rail"
  },
  {
    "id": "IT-S11119",
    "name": "Bari Centrale",
    "type": "rail",
    "geo": {
      "lat": 41.117974,
      "lng": 16.870113
    }
  },
  {
    "id": "IT-S11251",
    "name": "Bari Loseto",
    "type": "rail",
    "geo": {
      "lat": 41.04381,
      "lng": 16.84723
    }
  },
  {
    "id": "IT-S11118",
    "name": "Bari Palese Macchie",
    "type": "rail",
    "geo": {
      "lat": 41.149238,
      "lng": 16.780286
    }
  },
  {
    "id": "IT-S11148",
    "name": "Bari Parco Nord",
    "type": "rail",
    "geo": {
      "lat": 41.123916,
      "lng": 16.837018
    }
  },
  {
    "id": "IT-S11125",
    "name": "Bari Parco Sud",
    "type": "rail",
    "geo": {
      "lat": 41.115154,
      "lng": 16.898035
    }
  },
  {
    "id": "IT-S11513",
    "name": "Bari S.andrea",
    "type": "rail",
    "geo": {
      "lat": 41.105467,
      "lng": 16.830255
    }
  },
  {
    "id": "IT-S11150",
    "name": "Bari S.giorgio",
    "type": "rail",
    "geo": {
      "lat": 41.093779,
      "lng": 16.950084
    }
  },
  {
    "id": "IT-S11250",
    "name": "Bari S.rita",
    "type": "rail",
    "geo": {
      "lat": 41.07307,
      "lng": 16.85142
    }
  },
  {
    "id": "IT-S11116",
    "name": "Bari S.spirito",
    "type": "rail",
    "geo": {
      "lat": 41.159807,
      "lng": 16.746394
    }
  },
  {
    "id": "IT-S13092",
    "name": "Bari Sud Est",
    "type": "rail"
  },
  {
    "id": "IT-S41487",
    "name": "Bari Terminal Bus",
    "type": "rail",
    "geo": {
      "lat": 41.11774,
      "lng": 16.869601
    }
  },
  {
    "id": "IT-S11126",
    "name": "Bari Torre a Mare",
    "type": "rail",
    "geo": {
      "lat": 41.082756,
      "lng": 16.994611
    }
  },
  {
    "id": "IT-S11004",
    "name": "Bari Torre Quetta",
    "type": "rail",
    "geo": {
      "lat": 41.111582,
      "lng": 16.915807
    }
  },
  {
    "id": "IT-S11003",
    "name": "Bari Villaggio del Lavoratore",
    "type": "rail",
    "geo": {
      "lat": 41.104217,
      "lng": 16.822682
    }
  },
  {
    "id": "IT-S11120",
    "name": "Bari Zona Industriale",
    "type": "rail",
    "geo": {
      "lat": 41.128027,
      "lng": 16.82658
    }
  },
  {
    "id": "IT-S05419",
    "name": "Baricetta",
    "type": "rail",
    "geo": {
      "lat": 45.060818,
      "lng": 11.995351
    }
  },
  {
    "id": "IT-S11208",
    "name": "Barile",
    "type": "rail",
    "geo": {
      "lat": 40.943139,
      "lng": 15.671126
    }
  },
  {
    "id": "IT-S01926",
    "name": "Barlassina",
    "type": "rail",
    "geo": {
      "lat": 45.657941,
      "lng": 9.139177
    }
  },
  {
    "id": "IT-S11108",
    "name": "Barletta",
    "type": "rail",
    "geo": {
      "lat": 41.315406,
      "lng": 16.278605
    }
  },
  {
    "id": "IT-S09520",
    "name": "Baronissi",
    "type": "rail",
    "geo": {
      "lat": 40.74586,
      "lng": 14.772484
    }
  },
  {
    "id": "IT-S08204",
    "name": "Baschi-montecchio",
    "type": "rail",
    "geo": {
      "lat": 42.68685,
      "lng": 12.203496
    }
  },
  {
    "id": "IT-S02832",
    "name": "Basiliano",
    "type": "rail",
    "geo": {
      "lat": 46.012804,
      "lng": 13.109132
    }
  },
  {
    "id": "IT-S02520",
    "name": "Bassano del Grappa",
    "type": "rail",
    "geo": {
      "lat": 45.766654,
      "lng": 11.741268
    }
  },
  {
    "id": "IT-S08208",
    "name": "Bassano in Teverina",
    "type": "rail",
    "geo": {
      "lat": 42.483551,
      "lng": 12.333556
    }
  },
  {
    "id": "IT-S08312",
    "name": "Bassano Romano",
    "type": "rail",
    "geo": {
      "lat": 42.212444,
      "lng": 12.152302
    }
  },
  {
    "id": "IT-S07007",
    "name": "Bastia",
    "type": "rail",
    "geo": {
      "lat": 43.071193,
      "lng": 12.547746
    }
  },
  {
    "id": "IT-S00908",
    "name": "Bastia Mondovi`",
    "type": "rail",
    "geo": {
      "lat": 44.439398,
      "lng": 7.891671
    }
  },
  {
    "id": "IT-S05702",
    "name": "Battaglia Terme",
    "type": "rail",
    "geo": {
      "lat": 45.29143,
      "lng": 11.77839
    }
  },
  {
    "id": "IT-S09823",
    "name": "Battipaglia",
    "type": "rail",
    "geo": {
      "lat": 40.605619,
      "lng": 14.983147
    }
  },
  {
    "id": "IT-M326",
    "name": "Battistini",
    "type": "metro",
    "geo": {
      "lat": 41.90612,
      "lng": 12.4151835
    }
  },
  {
    "id": "IT-S07941",
    "name": "Baucca-garavelle",
    "type": "rail",
    "geo": {
      "lat": 43.414393,
      "lng": 12.260832
    }
  },
  {
    "id": "IT-S12875",
    "name": "Bauladu Milis",
    "type": "rail",
    "geo": {
      "lat": 40.020722,
      "lng": 8.687123
    }
  },
  {
    "id": "IT-S01015",
    "name": "Baveno",
    "type": "rail",
    "geo": {
      "lat": 45.909154,
      "lng": 8.502079
    }
  },
  {
    "id": "IT-S00807",
    "name": "Bazzana",
    "type": "rail",
    "geo": {
      "lat": 44.777041,
      "lng": 8.40151
    }
  },
  {
    "id": "IT-S07436",
    "name": "Bazzano",
    "type": "rail",
    "geo": {
      "lat": 44.508616,
      "lng": 11.078232
    }
  },
  {
    "id": "IT-S05975",
    "name": "Bazzano (fer)",
    "type": "rail",
    "geo": {
      "lat": 44.505002,
      "lng": 11.083525
    }
  },
  {
    "id": "IT-S00203",
    "name": "Beaulard",
    "type": "rail",
    "geo": {
      "lat": 45.046629,
      "lng": 6.759932
    }
  },
  {
    "id": "IT-S07422",
    "name": "Beffi",
    "type": "rail",
    "geo": {
      "lat": 42.19692,
      "lng": 13.660761
    }
  },
  {
    "id": "IT-S00901",
    "name": "Beinette",
    "type": "rail",
    "geo": {
      "lat": 44.36782,
      "lng": 7.644884
    }
  },
  {
    "id": "IT-S01864",
    "name": "Belgioioso",
    "type": "rail",
    "geo": {
      "lat": 45.16441,
      "lng": 9.31688
    }
  },
  {
    "id": "IT-S01017",
    "name": "Belgirate",
    "type": "rail",
    "geo": {
      "lat": 45.84334,
      "lng": 8.5711
    }
  },
  {
    "id": "IT-S09831",
    "name": "Bella Muro",
    "type": "rail",
    "geo": {
      "lat": 40.700977,
      "lng": 15.542927
    }
  },
  {
    "id": "IT-S01409",
    "name": "Bellano Tartavalle Terme",
    "type": "rail",
    "geo": {
      "lat": 46.039448,
      "lng": 9.302776
    }
  },
  {
    "id": "IT-S07902",
    "name": "Bellante Ripattone",
    "type": "rail",
    "geo": {
      "lat": 42.705882,
      "lng": 13.837985
    }
  },
  {
    "id": "IT-S05817",
    "name": "Bellaria",
    "type": "rail",
    "geo": {
      "lat": 44.150153,
      "lng": 12.461055
    }
  },
  {
    "id": "IT-S11512",
    "name": "Bellavista",
    "type": "rail",
    "geo": {
      "lat": 40.517077,
      "lng": 17.176892
    }
  },
  {
    "id": "IT-S00985",
    "name": "Bellinzago",
    "type": "rail",
    "geo": {
      "lat": 45.56668,
      "lng": 8.627663
    }
  },
  {
    "id": "IT-S07061",
    "name": "Bellisio Solfare",
    "type": "rail",
    "geo": {
      "lat": 43.520379,
      "lng": 12.823977
    }
  },
  {
    "id": "IT-S02559",
    "name": "Belluno",
    "type": "rail",
    "geo": {
      "lat": 46.141474,
      "lng": 12.209957
    }
  },
  {
    "id": "IT-S11743",
    "name": "Belmonte Calabro",
    "type": "rail",
    "geo": {
      "lat": 39.164427,
      "lng": 16.064515
    }
  },
  {
    "id": "IT-S11732",
    "name": "Belvedere Marittimo",
    "type": "rail",
    "geo": {
      "lat": 39.616576,
      "lng": 15.853178
    }
  },
  {
    "id": "IT-S09311",
    "name": "Benevento",
    "type": "rail",
    "geo": {
      "lat": 41.14187,
      "lng": 14.769514
    }
  },
  {
    "id": "IT-S09011",
    "name": "Benevento Appia",
    "type": "rail",
    "geo": {
      "lat": 41.133118,
      "lng": 14.765638
    }
  },
  {
    "id": "IT-S09530",
    "name": "Benevento Arco Traiano",
    "type": "rail",
    "geo": {
      "lat": 41.134544,
      "lng": 14.77988
    }
  },
  {
    "id": "IT-S09509",
    "name": "Benevento Porta Rufina",
    "type": "rail",
    "geo": {
      "lat": 41.123564,
      "lng": 14.784315
    }
  },
  {
    "id": "IT-S09012",
    "name": "Benevento Rione Liberta'",
    "type": "rail",
    "geo": {
      "lat": -9.019376,
      "lng": 4.511247
    }
  },
  {
    "id": "IT-M128",
    "name": "Bengasi",
    "type": "metro",
    "geo": {
      "lat": 45.0169671,
      "lng": 7.6613021
    }
  },
  {
    "id": "IT-S06158",
    "name": "Berceto",
    "type": "rail",
    "geo": {
      "lat": 44.555912,
      "lng": 9.931761
    }
  },
  {
    "id": "IT-S12859",
    "name": "Berchidda",
    "type": "rail",
    "geo": {
      "lat": 40.772052,
      "lng": 9.181317
    }
  },
  {
    "id": "IT-S00838",
    "name": "Bergamasco",
    "type": "rail",
    "geo": {
      "lat": 44.819891,
      "lng": 8.461447
    }
  },
  {
    "id": "IT-S01529",
    "name": "Bergamo",
    "type": "rail",
    "geo": {
      "lat": 45.69043,
      "lng": 9.675045
    }
  },
  {
    "id": "IT-S01530",
    "name": "Bergamo Ospedale",
    "type": "rail",
    "geo": {
      "lat": 45.688214,
      "lng": 9.638683
    }
  },
  {
    "id": "IT-S11460",
    "name": "Bernalda",
    "type": "rail",
    "geo": {
      "lat": 40.397748,
      "lng": 16.682347
    }
  },
  {
    "id": "IT-M16",
    "name": "Bernini",
    "type": "metro",
    "geo": {
      "lat": 45.0760134,
      "lng": 7.655793
    }
  },
  {
    "id": "IT-S01488",
    "name": "Besana",
    "type": "rail",
    "geo": {
      "lat": 45.702742,
      "lng": 9.283038
    }
  },
  {
    "id": "IT-S01145",
    "name": "Besnate",
    "type": "rail",
    "geo": {
      "lat": 45.695496,
      "lng": 8.761251
    }
  },
  {
    "id": "IT-S01141",
    "name": "Besozzo",
    "type": "rail",
    "geo": {
      "lat": 45.842335,
      "lng": 8.663223
    }
  },
  {
    "id": "IT-S01007",
    "name": "Beura Cardezza",
    "type": "rail",
    "geo": {
      "lat": 46.068341,
      "lng": 8.289627
    }
  },
  {
    "id": "IT-S04482",
    "name": "Bevera",
    "type": "rail",
    "geo": {
      "lat": 43.825249,
      "lng": 7.578995
    }
  },
  {
    "id": "IT-S02391",
    "name": "Bevilacqua",
    "type": "rail",
    "geo": {
      "lat": 45.23031,
      "lng": 11.396674
    }
  },
  {
    "id": "IT-S05119",
    "name": "Biagioni Lagacci",
    "type": "rail",
    "geo": {
      "lat": 44.086352,
      "lng": 10.948269
    }
  },
  {
    "id": "IT-S11855",
    "name": "Bianco",
    "type": "rail",
    "geo": {
      "lat": 38.08912,
      "lng": 16.153176
    }
  },
  {
    "id": "IT-S00238",
    "name": "Bianze'",
    "type": "rail",
    "geo": {
      "lat": 45.309493,
      "lng": 8.115523
    }
  },
  {
    "id": "IT-S01438",
    "name": "Bianzone",
    "type": "rail",
    "geo": {
      "lat": 46.179468,
      "lng": 10.112453
    }
  },
  {
    "id": "IT-S01483",
    "name": "Biassono-lesmo Parco",
    "type": "rail",
    "geo": {
      "lat": 45.63221,
      "lng": 9.298298
    }
  },
  {
    "id": "IT-S05927",
    "name": "Bibbiano",
    "type": "rail"
  },
  {
    "id": "IT-S05928",
    "name": "Bibbiano Fossa",
    "type": "rail"
  },
  {
    "id": "IT-S05926",
    "name": "Bibbiano Via Monti",
    "type": "rail"
  },
  {
    "id": "IT-S06076",
    "name": "Bibbiena",
    "type": "rail",
    "geo": {
      "lat": -9.019376,
      "lng": 4.511247
    }
  },
  {
    "id": "IT-S06077",
    "name": "Bibbiena Corsalone",
    "type": "rail",
    "geo": {
      "lat": -9.019376,
      "lng": 4.511247
    }
  },
  {
    "id": "IT-S00522",
    "name": "Bibiana",
    "type": "rail",
    "geo": {
      "lat": 44.809941,
      "lng": 7.285727
    }
  },
  {
    "id": "IT-S12338",
    "name": "Bicocca",
    "type": "rail",
    "geo": {
      "lat": 37.460622,
      "lng": 15.044376
    }
  },
  {
    "id": "IT-M248",
    "name": "Bicocca",
    "type": "metro",
    "geo": {
      "lat": 45.5147332,
      "lng": 9.2053603
    }
  },
  {
    "id": "IT-S00970",
    "name": "Biella Chiavazza",
    "type": "rail",
    "geo": {
      "lat": 45.568084,
      "lng": 8.066787
    }
  },
  {
    "id": "IT-S00070",
    "name": "Biella S.paolo",
    "type": "rail",
    "geo": {
      "lat": 45.557156,
      "lng": 8.067353
    }
  },
  {
    "id": "IT-S06611",
    "name": "Biforco",
    "type": "rail",
    "geo": {
      "lat": 44.068442,
      "lng": 11.602383
    }
  },
  {
    "id": "IT-M246",
    "name": "Bignami",
    "type": "metro",
    "geo": {
      "lat": 45.5267835,
      "lng": 9.2121828
    }
  },
  {
    "id": "IT-S11113",
    "name": "Bisceglie",
    "type": "rail",
    "geo": {
      "lat": 41.23553,
      "lng": 16.499563
    }
  },
  {
    "id": "IT-M134",
    "name": "Bisceglie",
    "type": "metro",
    "geo": {
      "lat": 45.4553979,
      "lng": 9.1129252
    }
  },
  {
    "id": "IT-S00870",
    "name": "Bistagno",
    "type": "rail",
    "geo": {
      "lat": 44.659257,
      "lng": 8.372061
    }
  },
  {
    "id": "IT-S01202",
    "name": "Bisuschio-viggiu'",
    "type": "rail",
    "geo": {
      "lat": 45.870714,
      "lng": 8.887792
    }
  },
  {
    "id": "IT-S11501",
    "name": "Bitetto Palo del Colle",
    "type": "rail",
    "geo": {
      "lat": 41.045716,
      "lng": 16.743799
    }
  },
  {
    "id": "IT-S11252",
    "name": "Bitritto",
    "type": "rail",
    "geo": {
      "lat": 41.04381,
      "lng": 16.83277
    }
  },
  {
    "id": "IT-S05930",
    "name": "Bivio Barco",
    "type": "rail"
  },
  {
    "id": "IT-S03036",
    "name": "Bivio Cargnacco",
    "type": "rail",
    "geo": {
      "lat": 46.007733,
      "lng": 13.247325
    }
  },
  {
    "id": "IT-S00027",
    "name": "Bivio Castelrosso",
    "type": "rail",
    "geo": {
      "lat": 45.201871,
      "lng": 7.932861
    }
  },
  {
    "id": "IT-S03313",
    "name": "Bivio D'aurisina",
    "type": "rail",
    "geo": {
      "lat": 45.754069,
      "lng": 13.656148
    }
  },
  {
    "id": "IT-S00029",
    "name": "Bivio Madonna Dell`olmo",
    "type": "rail",
    "geo": {
      "lat": 44.414078,
      "lng": 7.546234
    }
  },
  {
    "id": "IT-S06056",
    "name": "Bivio Mortellini",
    "type": "rail",
    "geo": {
      "lat": 43.661224,
      "lng": 10.369478
    }
  },
  {
    "id": "IT-S11751",
    "name": "Bivio Pantani",
    "type": "rail",
    "geo": {
      "lat": 39.346697,
      "lng": 16.046631
    }
  },
  {
    "id": "IT-S09714",
    "name": "Bivio S.lucia (na)",
    "type": "rail",
    "geo": {
      "lat": 40.742888,
      "lng": 14.682744
    }
  },
  {
    "id": "IT-S03039",
    "name": "Bivio San Polo",
    "type": "rail",
    "geo": {
      "lat": 45.81393,
      "lng": 13.526626
    }
  },
  {
    "id": "IT-S00005",
    "name": "Bivio Sesia",
    "type": "rail",
    "geo": {
      "lat": 45.338661,
      "lng": 8.441797
    }
  },
  {
    "id": "IT-S11755",
    "name": "Bivio Settimo",
    "type": "rail",
    "geo": {
      "lat": 39.381416,
      "lng": 16.222002
    }
  },
  {
    "id": "IT-S08667",
    "name": "Bivio/p.c. Sgurgola",
    "type": "rail",
    "geo": {
      "lat": 41.527485,
      "lng": 13.547101
    }
  },
  {
    "id": "IT-S06008",
    "name": "Bivio/pc Arcola",
    "type": "rail",
    "geo": {
      "lat": 44.074771,
      "lng": 10.015803
    }
  },
  {
    "id": "IT-S01778",
    "name": "Boario Terme",
    "type": "rail",
    "geo": {
      "lat": 45.891924,
      "lng": 10.190831
    }
  },
  {
    "id": "IT-S09763",
    "name": "Boccia al Mauro",
    "type": "rail",
    "geo": {
      "lat": 40.732794,
      "lng": 14.471878
    }
  },
  {
    "id": "IT-S04709",
    "name": "Bogliasco",
    "type": "rail",
    "geo": {
      "lat": 44.379209,
      "lng": 9.066053
    }
  },
  {
    "id": "IT-S09453",
    "name": "Boiano",
    "type": "rail",
    "geo": {
      "lat": 41.487789,
      "lng": 14.4744
    }
  },
  {
    "id": "IT-S02839",
    "name": "Bojon",
    "type": "rail",
    "geo": {
      "lat": 45.336404,
      "lng": 12.08056
    }
  },
  {
    "id": "IT-S06028",
    "name": "Bolgheri",
    "type": "rail",
    "geo": {
      "lat": 43.244664,
      "lng": 10.550549
    }
  },
  {
    "id": "IT-M285",
    "name": "Bolivar",
    "type": "metro",
    "geo": {
      "lat": 45.455343,
      "lng": 9.1531255
    }
  },
  {
    "id": "IT-S01071",
    "name": "Bollate Centro",
    "type": "rail",
    "geo": {
      "lat": 45.545604,
      "lng": 9.12021
    }
  },
  {
    "id": "IT-S01072",
    "name": "Bollate Nord",
    "type": "rail",
    "geo": {
      "lat": 45.552723,
      "lng": 9.112269
    }
  },
  {
    "id": "IT-M10",
    "name": "Bologna",
    "type": "metro",
    "geo": {
      "lat": 41.9136627,
      "lng": 12.5208145
    }
  },
  {
    "id": "IT-S05100",
    "name": "Bologna Borgo Panigale",
    "type": "rail",
    "geo": {
      "lat": 44.515007,
      "lng": 11.284735
    }
  },
  {
    "id": "IT-S05046",
    "name": "Bologna C.le/av",
    "type": "rail",
    "geo": {
      "lat": 44.507175,
      "lng": 11.342867
    }
  },
  {
    "id": "IT-S05043",
    "name": "Bologna Centrale",
    "type": "rail",
    "geo": {
      "lat": 44.505907,
      "lng": 11.343369
    }
  },
  {
    "id": "IT-S05725",
    "name": "Bologna Corticella",
    "type": "rail",
    "geo": {
      "lat": 44.551962,
      "lng": 11.354009
    }
  },
  {
    "id": "IT-S05020",
    "name": "Bologna Fiere",
    "type": "rail",
    "geo": {
      "lat": 44.512632,
      "lng": 11.36894
    }
  },
  {
    "id": "IT-S05099",
    "name": "Bologna Interporto",
    "type": "rail",
    "geo": {
      "lat": 44.490404,
      "lng": 11.274884
    }
  },
  {
    "id": "IT-S05140",
    "name": "Bologna Mazzini",
    "type": "rail",
    "geo": {
      "lat": 44.482702,
      "lng": 11.376326
    }
  },
  {
    "id": "IT-S05042",
    "name": "Bologna Ravone",
    "type": "rail",
    "geo": {
      "lat": 44.510244,
      "lng": 11.320029
    }
  },
  {
    "id": "IT-S05989",
    "name": "Bologna Rimesse",
    "type": "rail"
  },
  {
    "id": "IT-S05019",
    "name": "Bologna Roveri",
    "type": "rail"
  },
  {
    "id": "IT-S05990",
    "name": "Bologna S.rita",
    "type": "rail"
  },
  {
    "id": "IT-S05130",
    "name": "Bologna S.ruffillo",
    "type": "rail",
    "geo": {
      "lat": 44.462731,
      "lng": 11.372813
    }
  },
  {
    "id": "IT-S05081",
    "name": "Bologna S.vitale",
    "type": "rail",
    "geo": {
      "lat": 44.496331,
      "lng": 11.373234
    }
  },
  {
    "id": "IT-S05991",
    "name": "Bologna Via Larga",
    "type": "rail"
  },
  {
    "id": "IT-S05086",
    "name": "Bologna Zanardi",
    "type": "rail",
    "geo": {
      "lat": 44.514775,
      "lng": 11.333977
    }
  },
  {
    "id": "IT-S05016",
    "name": "Bologna Zanolini",
    "type": "rail",
    "geo": {
      "lat": 44.494504,
      "lng": 11.359241
    }
  },
  {
    "id": "IT-M65",
    "name": "Bolognetta",
    "type": "metro",
    "geo": {
      "lat": 41.8651593,
      "lng": 12.6809329
    }
  },
  {
    "id": "IT-S02026",
    "name": "Bolzano",
    "type": "rail",
    "geo": {
      "lat": 46.496657,
      "lng": 11.358361
    }
  },
  {
    "id": "IT-S00014",
    "name": "Bolzano Novarese",
    "type": "rail",
    "geo": {
      "lat": 45.759362,
      "lng": 8.440761
    }
  },
  {
    "id": "IT-S02226",
    "name": "Bolzano Sud",
    "type": "rail",
    "geo": {
      "lat": 46.473613,
      "lng": 11.32623
    }
  },
  {
    "id": "IT-S07993",
    "name": "Bomba Torricella",
    "type": "rail",
    "geo": {
      "lat": -9.019376,
      "lng": 4.511247
    }
  },
  {
    "id": "IT-S04730",
    "name": "Bonassola",
    "type": "rail",
    "geo": {
      "lat": 44.184867,
      "lng": 9.582673
    }
  },
  {
    "id": "IT-S05165",
    "name": "Bondeno",
    "type": "rail",
    "geo": {
      "lat": -9.019376,
      "lng": 4.511247
    }
  },
  {
    "id": "IT-S09464",
    "name": "Bonefro S.croce",
    "type": "rail",
    "geo": {
      "lat": 41.710696,
      "lng": 14.860726
    }
  },
  {
    "id": "IT-S02383",
    "name": "Bonferraro",
    "type": "rail",
    "geo": {
      "lat": 45.185637,
      "lng": 11.009251
    }
  },
  {
    "id": "IT-M225",
    "name": "Bonola",
    "type": "metro",
    "geo": {
      "lat": 45.4970317,
      "lng": 9.1101295
    }
  },
  {
    "id": "IT-S12867",
    "name": "Bonorva",
    "type": "rail",
    "geo": {
      "lat": 40.417767,
      "lng": 8.760714
    }
  },
  {
    "id": "IT-S04503",
    "name": "Bordighera",
    "type": "rail",
    "geo": {
      "lat": 43.778475,
      "lng": 7.663628
    }
  },
  {
    "id": "IT-S05963",
    "name": "Boretto",
    "type": "rail"
  },
  {
    "id": "IT-S00086",
    "name": "Borgaro",
    "type": "rail",
    "geo": {
      "lat": 45.153217,
      "lng": 7.64886
    }
  },
  {
    "id": "IT-M66",
    "name": "Borghesiana",
    "type": "metro",
    "geo": {
      "lat": 41.8646918,
      "lng": 12.6672618
    }
  },
  {
    "id": "IT-S06100",
    "name": "Borghetto Parmense",
    "type": "rail",
    "geo": {
      "lat": 44.837198,
      "lng": 10.1177
    }
  },
  {
    "id": "IT-S04518",
    "name": "Borghetto S.spirito",
    "type": "rail",
    "geo": {
      "lat": 44.109013,
      "lng": 8.242346
    }
  },
  {
    "id": "IT-S02051",
    "name": "Borghetto Sull'adige",
    "type": "rail",
    "geo": {
      "lat": 45.696826,
      "lng": 10.926933
    }
  },
  {
    "id": "IT-S04521",
    "name": "Borgio Verezzi",
    "type": "rail",
    "geo": {
      "lat": 44.15773,
      "lng": 8.309083
    }
  },
  {
    "id": "IT-S09526",
    "name": "Borgo",
    "type": "rail",
    "geo": {
      "lat": 40.8459,
      "lng": 14.7842
    }
  },
  {
    "id": "IT-M141",
    "name": "Borgo",
    "type": "metro",
    "geo": {
      "lat": 37.5217643,
      "lng": 15.0846805
    }
  },
  {
    "id": "IT-S06410",
    "name": "Borgo a Buggiano",
    "type": "rail",
    "geo": {
      "lat": 43.880717,
      "lng": 10.730091
    }
  },
  {
    "id": "IT-S06309",
    "name": "Borgo a Mozzano",
    "type": "rail",
    "geo": {
      "lat": 43.977205,
      "lng": 10.54129
    }
  },
  {
    "id": "IT-S04214",
    "name": "Borgo Fornari per Voltaggio",
    "type": "rail",
    "geo": {
      "lat": 44.588956,
      "lng": 8.938048
    }
  },
  {
    "id": "IT-S00032",
    "name": "Borgo Lavezzaro",
    "type": "rail",
    "geo": {
      "lat": 45.31876,
      "lng": 8.7032
    }
  },
  {
    "id": "IT-S00171",
    "name": "Borgo Revel",
    "type": "rail",
    "geo": {
      "lat": 45.190041,
      "lng": 8.018396
    }
  },
  {
    "id": "IT-S00613",
    "name": "Borgo S.dalmazzo",
    "type": "rail",
    "geo": {
      "lat": 44.326373,
      "lng": 7.486102
    }
  },
  {
    "id": "IT-S06604",
    "name": "Borgo S.lorenzo",
    "type": "rail",
    "geo": {
      "lat": 43.959664,
      "lng": 11.38031
    }
  },
  {
    "id": "IT-S06704",
    "name": "Borgo S.lorenzo Rimorelli",
    "type": "rail",
    "geo": {
      "lat": 43.953367,
      "lng": 11.399752
    }
  },
  {
    "id": "IT-S00315",
    "name": "Borgo S.martino",
    "type": "rail",
    "geo": {
      "lat": 45.087084,
      "lng": 8.520668
    }
  },
  {
    "id": "IT-S00981",
    "name": "Borgo Ticino",
    "type": "rail",
    "geo": {
      "lat": 45.691949,
      "lng": 8.602492
    }
  },
  {
    "id": "IT-S06161",
    "name": "Borgo Val di Taro",
    "type": "rail",
    "geo": {
      "lat": 44.486522,
      "lng": 9.781493
    }
  },
  {
    "id": "IT-S02313",
    "name": "Borgo Valsugana Centro",
    "type": "rail",
    "geo": {
      "lat": 46.051456,
      "lng": 11.454164
    }
  },
  {
    "id": "IT-S02314",
    "name": "Borgo Valsugana Est",
    "type": "rail",
    "geo": {
      "lat": 46.052484,
      "lng": 11.46336
    }
  },
  {
    "id": "IT-S00246",
    "name": "Borgo Vercelli",
    "type": "rail",
    "geo": {
      "lat": 45.359254,
      "lng": 8.461483
    }
  },
  {
    "id": "IT-S02021",
    "name": "Borgochiesanuova",
    "type": "rail",
    "geo": {
      "lat": 45.141689,
      "lng": 10.766297
    }
  },
  {
    "id": "IT-S02338",
    "name": "Borgoforte",
    "type": "rail",
    "geo": {
      "lat": 45.050328,
      "lng": 10.752388
    }
  },
  {
    "id": "IT-S00152",
    "name": "Borgofranco",
    "type": "rail",
    "geo": {
      "lat": 45.514775,
      "lng": 7.854612
    }
  },
  {
    "id": "IT-S01830",
    "name": "Borgolombardo",
    "type": "rail",
    "geo": {
      "lat": 45.404507,
      "lng": 9.270467
    }
  },
  {
    "id": "IT-S00016",
    "name": "Borgomanero",
    "type": "rail",
    "geo": {
      "lat": 45.700938,
      "lng": 8.467752
    }
  },
  {
    "id": "IT-S01788",
    "name": "Borgonato - Adro",
    "type": "rail",
    "geo": {
      "lat": 45.62222,
      "lng": 10.020094
    }
  },
  {
    "id": "IT-S00210",
    "name": "Borgone",
    "type": "rail",
    "geo": {
      "lat": 45.123381,
      "lng": 7.236078
    }
  },
  {
    "id": "IT-S05152",
    "name": "Borgonuovo",
    "type": "rail",
    "geo": {
      "lat": 44.443243,
      "lng": 11.274975
    }
  },
  {
    "id": "IT-S00860",
    "name": "Borgoratto",
    "type": "rail",
    "geo": {
      "lat": 44.836008,
      "lng": 8.538192
    }
  },
  {
    "id": "IT-S00104",
    "name": "Borgosesia",
    "type": "rail",
    "geo": {
      "lat": 45.716798,
      "lng": 8.28239
    }
  },
  {
    "id": "IT-S01789",
    "name": "Bornato - Calino",
    "type": "rail",
    "geo": {
      "lat": 45.590419,
      "lng": 10.03321
    }
  },
  {
    "id": "IT-S12872",
    "name": "Borore",
    "type": "rail",
    "geo": {
      "lat": 40.218977,
      "lng": 8.809362
    }
  },
  {
    "id": "IT-S02390",
    "name": "Boschi S.anna",
    "type": "rail",
    "geo": {
      "lat": 45.217301,
      "lng": 11.362303
    }
  },
  {
    "id": "IT-S09452",
    "name": "Bosco Redole",
    "type": "rail",
    "geo": {
      "lat": 41.459299,
      "lng": 14.587884
    }
  },
  {
    "id": "IT-S00882",
    "name": "Bosconero",
    "type": "rail",
    "geo": {
      "lat": 45.267514,
      "lng": 7.761964
    }
  },
  {
    "id": "IT-S09754",
    "name": "Boscoreale",
    "type": "rail",
    "geo": {
      "lat": 40.770786,
      "lng": 14.48017
    }
  },
  {
    "id": "IT-S11829",
    "name": "Botricello",
    "type": "rail",
    "geo": {
      "lat": 38.934089,
      "lng": 16.85748
    }
  },
  {
    "id": "IT-S03057",
    "name": "Bottenicco",
    "type": "rail",
    "geo": {
      "lat": 46.062141,
      "lng": 13.371818
    }
  },
  {
    "id": "IT-S11860",
    "name": "Bova Marina",
    "type": "rail",
    "geo": {
      "lat": 37.930383,
      "lng": 15.923976
    }
  },
  {
    "id": "IT-S11854",
    "name": "Bovalino",
    "type": "rail",
    "geo": {
      "lat": 38.150153,
      "lng": 16.18159
    }
  },
  {
    "id": "IT-S09321",
    "name": "Bovino Deliceto",
    "type": "rail",
    "geo": {
      "lat": 41.27835,
      "lng": 15.369255
    }
  },
  {
    "id": "IT-S01085",
    "name": "Bovisio Masciago",
    "type": "rail",
    "geo": {
      "lat": 45.611998,
      "lng": 9.141423
    }
  },
  {
    "id": "IT-S02363",
    "name": "Bovolone",
    "type": "rail",
    "geo": {
      "lat": 45.254654,
      "lng": 11.124421
    }
  },
  {
    "id": "IT-S01920",
    "name": "Bozzolo",
    "type": "rail",
    "geo": {
      "lat": 45.107185,
      "lng": 10.472751
    }
  },
  {
    "id": "IT-S00821",
    "name": "Bra",
    "type": "rail",
    "geo": {
      "lat": 44.693757,
      "lng": 7.848553
    }
  },
  {
    "id": "IT-S08315",
    "name": "Bracciano",
    "type": "rail",
    "geo": {
      "lat": 42.103755,
      "lng": 12.173283
    }
  },
  {
    "id": "IT-S04803",
    "name": "Bragno",
    "type": "rail",
    "geo": {
      "lat": 44.371683,
      "lng": 8.304475
    }
  },
  {
    "id": "IT-S11857",
    "name": "Brancaleone",
    "type": "rail",
    "geo": {
      "lat": 37.965475,
      "lng": 16.103297
    }
  },
  {
    "id": "IT-S00231",
    "name": "Brandizzo",
    "type": "rail",
    "geo": {
      "lat": 45.178753,
      "lng": 7.841202
    }
  },
  {
    "id": "IT-S00622",
    "name": "Breil Sur Roya",
    "type": "rail",
    "geo": {
      "lat": 43.944057,
      "lng": 7.516446
    }
  },
  {
    "id": "IT-S01452",
    "name": "Brenna-alzate",
    "type": "rail",
    "geo": {
      "lat": 45.75417,
      "lng": 9.18327
    }
  },
  {
    "id": "IT-S02001",
    "name": "Brennero",
    "type": "rail",
    "geo": {
      "lat": 47.00242,
      "lng": 11.504898
    }
  },
  {
    "id": "IT-S01005",
    "name": "Breno",
    "type": "rail",
    "geo": {
      "lat": 45.959216,
      "lng": 10.305721
    }
  },
  {
    "id": "IT-M173",
    "name": "Brenta",
    "type": "metro",
    "geo": {
      "lat": 45.4427688,
      "lng": 9.2185197
    }
  },
  {
    "id": "IT-S05964",
    "name": "Brescello-viadana",
    "type": "rail"
  },
  {
    "id": "IT-S01717",
    "name": "Brescia",
    "type": "rail",
    "geo": {
      "lat": 45.53252,
      "lng": 10.21297
    }
  },
  {
    "id": "IT-S01797",
    "name": "Brescia Borgo San Giovanni",
    "type": "rail",
    "geo": {
      "lat": 45.543087,
      "lng": 10.19086
    }
  },
  {
    "id": "IT-S01813",
    "name": "Brescia Est Piazzale Sud",
    "type": "rail",
    "geo": {
      "lat": 45.523316,
      "lng": 10.212652
    }
  },
  {
    "id": "IT-S17451",
    "name": "Brescia Violino",
    "type": "rail",
    "geo": {
      "lat": 45.550854,
      "lng": 10.159419
    }
  },
  {
    "id": "IT-M98",
    "name": "Bresciadue",
    "type": "metro",
    "geo": {
      "lat": 45.5263665,
      "lng": 10.2124713
    }
  },
  {
    "id": "IT-S01930",
    "name": "Bressana Argine",
    "type": "rail",
    "geo": {
      "lat": 45.07284,
      "lng": 9.13703
    }
  },
  {
    "id": "IT-S01805",
    "name": "Bressana Bottarone",
    "type": "rail",
    "geo": {
      "lat": 45.086284,
      "lng": 9.110756
    }
  },
  {
    "id": "IT-S02014",
    "name": "Bressanone",
    "type": "rail",
    "geo": {
      "lat": 46.709982,
      "lng": 11.650026
    }
  },
  {
    "id": "IT-S11757",
    "name": "Briatico",
    "type": "rail",
    "geo": {
      "lat": 38.725254,
      "lng": 16.025349
    }
  },
  {
    "id": "IT-S00521",
    "name": "Bricherasio",
    "type": "rail",
    "geo": {
      "lat": 44.824336,
      "lng": 7.307513
    }
  },
  {
    "id": "IT-M94",
    "name": "Brignole",
    "type": "metro",
    "geo": {
      "lat": 44.407269,
      "lng": 8.9485007
    }
  },
  {
    "id": "IT-M154",
    "name": "Brin",
    "type": "metro",
    "geo": {
      "lat": 44.4279912,
      "lng": 8.895685
    }
  },
  {
    "id": "IT-S11136",
    "name": "Brindisi",
    "type": "rail",
    "geo": {
      "lat": 40.634287,
      "lng": 17.939289
    }
  },
  {
    "id": "IT-S11123",
    "name": "Brindisi Cittadella della Ricerca",
    "type": "rail",
    "geo": {
      "lat": 40.589107,
      "lng": 17.848014
    }
  },
  {
    "id": "IT-S11451",
    "name": "Brindisi di Montagna",
    "type": "rail",
    "geo": {
      "lat": 40.611991,
      "lng": 15.955795
    }
  },
  {
    "id": "IT-S11137",
    "name": "Brindisi Marittima",
    "type": "rail",
    "geo": {
      "lat": 40.633543,
      "lng": 17.94863
    }
  },
  {
    "id": "IT-S11139",
    "name": "Brindisi Perrino",
    "type": "rail",
    "geo": {
      "lat": 40.628072,
      "lng": 17.914333
    }
  },
  {
    "id": "IT-S00113",
    "name": "Briona",
    "type": "rail",
    "geo": {
      "lat": 45.538568,
      "lng": 8.479541
    }
  },
  {
    "id": "IT-S06614",
    "name": "Brisighella",
    "type": "rail",
    "geo": {
      "lat": 44.220516,
      "lng": 11.769757
    }
  },
  {
    "id": "IT-S12031",
    "name": "Brolo Ficarra",
    "type": "rail",
    "geo": {
      "lat": 38.159054,
      "lng": 14.830242
    }
  },
  {
    "id": "IT-S01944",
    "name": "Broni",
    "type": "rail",
    "geo": {
      "lat": 45.066239,
      "lng": 9.258938
    }
  },
  {
    "id": "IT-S02030",
    "name": "Bronzolo",
    "type": "rail",
    "geo": {
      "lat": 46.40505,
      "lng": 11.315833
    }
  },
  {
    "id": "IT-S00424",
    "name": "Brozolo",
    "type": "rail",
    "geo": {
      "lat": 45.121299,
      "lng": 8.05893
    }
  },
  {
    "id": "IT-S12153",
    "name": "Bruca",
    "type": "rail",
    "geo": {
      "lat": 37.946836,
      "lng": 12.793178
    }
  },
  {
    "id": "IT-S12344",
    "name": "Brucoli",
    "type": "rail",
    "geo": {
      "lat": 37.271531,
      "lng": 15.186878
    }
  },
  {
    "id": "IT-S02107",
    "name": "Brunico",
    "type": "rail",
    "geo": {
      "lat": 46.794482,
      "lng": 11.929926
    }
  },
  {
    "id": "IT-S02060",
    "name": "Brunico Nord",
    "type": "rail",
    "geo": {
      "lat": 46.800538,
      "lng": 11.936419
    }
  },
  {
    "id": "IT-S00837",
    "name": "Bruno",
    "type": "rail",
    "geo": {
      "lat": 44.797947,
      "lng": 8.439639
    }
  },
  {
    "id": "IT-S00209",
    "name": "Bruzolo di Susa",
    "type": "rail",
    "geo": {
      "lat": 45.131215,
      "lng": 7.201552
    }
  },
  {
    "id": "IT-S09828",
    "name": "Buccino S.gregorio Magno",
    "type": "rail",
    "geo": {
      "lat": 40.601034,
      "lng": 15.373948
    }
  },
  {
    "id": "IT-S06911",
    "name": "Bucine",
    "type": "rail",
    "geo": {
      "lat": 43.480413,
      "lng": 11.617583
    }
  },
  {
    "id": "IT-S03088",
    "name": "Budoia Polcenigo",
    "type": "rail",
    "geo": {
      "lat": 46.031333,
      "lng": 12.537649
    }
  },
  {
    "id": "IT-S05017",
    "name": "Budrio",
    "type": "rail"
  },
  {
    "id": "IT-S05996",
    "name": "Budrio Centro",
    "type": "rail"
  },
  {
    "id": "IT-S08538",
    "name": "Bugnara",
    "type": "rail",
    "geo": {
      "lat": 42.031133,
      "lng": 13.861848
    }
  },
  {
    "id": "IT-M232",
    "name": "Buonarroti",
    "type": "metro",
    "geo": {
      "lat": 45.4704169,
      "lng": 9.155316
    }
  },
  {
    "id": "IT-S06874",
    "name": "Buonconvento",
    "type": "rail",
    "geo": {
      "lat": 43.135379,
      "lng": 11.483568
    }
  },
  {
    "id": "IT-S12016",
    "name": "Buonfornello",
    "type": "rail",
    "geo": {
      "lat": 37.972052,
      "lng": 13.816408
    }
  },
  {
    "id": "IT-S00054",
    "name": "Buronzo",
    "type": "rail",
    "geo": {
      "lat": 45.47179,
      "lng": 8.2667
    }
  },
  {
    "id": "IT-S02595",
    "name": "Busa di Vigonza",
    "type": "rail",
    "geo": {
      "lat": 45.429874,
      "lng": 11.951813
    }
  },
  {
    "id": "IT-S04215",
    "name": "Busalla",
    "type": "rail",
    "geo": {
      "lat": 44.575455,
      "lng": 8.943436
    }
  },
  {
    "id": "IT-S00704",
    "name": "Busca",
    "type": "rail",
    "geo": {
      "lat": 44.520578,
      "lng": 7.481549
    }
  },
  {
    "id": "IT-S02563",
    "name": "Busche Lentiai Mel",
    "type": "rail",
    "geo": {
      "lat": 46.04003,
      "lng": 11.979362
    }
  },
  {
    "id": "IT-M119",
    "name": "Bussero",
    "type": "metro",
    "geo": {
      "lat": 45.5254191,
      "lng": 9.3758581
    }
  },
  {
    "id": "IT-S01963",
    "name": "Busseto",
    "type": "rail",
    "geo": {
      "lat": 44.974691,
      "lng": 10.038909
    }
  },
  {
    "id": "IT-S07704",
    "name": "Bussi",
    "type": "rail",
    "geo": {
      "lat": 42.194229,
      "lng": 13.848965
    }
  },
  {
    "id": "IT-S00208",
    "name": "Bussoleno",
    "type": "rail",
    "geo": {
      "lat": 45.139643,
      "lng": 7.14474
    }
  },
  {
    "id": "IT-S01031",
    "name": "Busto Arsizio",
    "type": "rail",
    "geo": {
      "lat": 45.61593,
      "lng": 8.865897
    }
  },
  {
    "id": "IT-S01137",
    "name": "Busto Arsizio Nord",
    "type": "rail",
    "geo": {
      "lat": 45.606048,
      "lng": 8.851449
    }
  },
  {
    "id": "IT-S12406",
    "name": "Butera",
    "type": "rail",
    "geo": {
      "lat": 37.145078,
      "lng": 14.171691
    }
  },
  {
    "id": "IT-S01482",
    "name": "Buttafava",
    "type": "rail",
    "geo": {
      "lat": 45.621426,
      "lng": 9.3013
    }
  },
  {
    "id": "IT-S05301",
    "name": "Buttapietra",
    "type": "rail",
    "geo": {
      "lat": 45.338781,
      "lng": 10.988063
    }
  },
  {
    "id": "IT-S03029",
    "name": "Buttrio",
    "type": "rail",
    "geo": {
      "lat": 46.012434,
      "lng": 13.329449
    }
  },
  {
    "id": "IT-S05993",
    "name": "Ca' Dell'orbo",
    "type": "rail"
  },
  {
    "id": "IT-M249",
    "name": "Ca' Granda - Pratocentenaro",
    "type": "metro",
    "geo": {
      "lat": 45.5072418,
      "lng": 9.201118
    }
  },
  {
    "id": "IT-S06044",
    "name": "Ca` di Boschetti",
    "type": "rail",
    "geo": {
      "lat": 44.118221,
      "lng": 9.864074
    }
  },
  {
    "id": "IT-S01088",
    "name": "Cabiate",
    "type": "rail",
    "geo": {
      "lat": 45.675913,
      "lng": 9.168547
    }
  },
  {
    "id": "IT-S05006",
    "name": "Cadeo",
    "type": "rail",
    "geo": {
      "lat": 44.967288,
      "lng": 9.853192
    }
  },
  {
    "id": "IT-S01759",
    "name": "Cadorago",
    "type": "rail",
    "geo": {
      "lat": 45.729908,
      "lng": 9.04114
    }
  },
  {
    "id": "IT-M200",
    "name": "Cadorna FN",
    "type": "metro",
    "geo": {
      "lat": 45.4682326,
      "lng": 9.176463
    }
  },
  {
    "id": "IT-M201",
    "name": "Cadorna FN",
    "type": "metro",
    "geo": {
      "lat": 45.4681452,
      "lng": 9.1771272
    }
  },
  {
    "id": "IT-S12891",
    "name": "Cagliari",
    "type": "rail",
    "geo": {
      "lat": 39.215977,
      "lng": 9.108262
    }
  },
  {
    "id": "IT-S12890",
    "name": "Cagliari Elmas",
    "type": "rail",
    "geo": {
      "lat": 39.264408,
      "lng": 9.045613
    }
  },
  {
    "id": "IT-S12810",
    "name": "Cagliari S.gilla",
    "type": "rail",
    "geo": {
      "lat": 39.226538,
      "lng": 9.097384
    }
  },
  {
    "id": "IT-S09025",
    "name": "Caiazzo",
    "type": "rail",
    "geo": {
      "lat": -9.019376,
      "lng": 4.511247
    }
  },
  {
    "id": "IT-M186",
    "name": "Caiazzo",
    "type": "metro",
    "geo": {
      "lat": 45.4853047,
      "lng": 9.2094139
    }
  },
  {
    "id": "IT-S00879",
    "name": "Cairo Montenotte",
    "type": "rail",
    "geo": {
      "lat": 44.394059,
      "lng": 8.278742
    }
  },
  {
    "id": "IT-M215",
    "name": "Cairoli",
    "type": "metro",
    "geo": {
      "lat": 45.4684915,
      "lng": 9.1819853
    }
  },
  {
    "id": "IT-S12851",
    "name": "Cala Sabina",
    "type": "rail",
    "geo": {
      "lat": 41.011019,
      "lng": 9.588104
    }
  },
  {
    "id": "IT-S02550",
    "name": "Calalzo Pieve Cadore Cortina",
    "type": "rail",
    "geo": {
      "lat": 46.443918,
      "lng": 12.388624
    }
  },
  {
    "id": "IT-S00833",
    "name": "Calamandrana",
    "type": "rail",
    "geo": {
      "lat": 44.738986,
      "lng": 8.331572
    }
  },
  {
    "id": "IT-S12321",
    "name": "Calatabiano",
    "type": "rail",
    "geo": {
      "lat": 37.814816,
      "lng": 15.226539
    }
  },
  {
    "id": "IT-S12151",
    "name": "Calatafimi",
    "type": "rail",
    "geo": {
      "lat": 37.939543,
      "lng": 12.855666
    }
  },
  {
    "id": "IT-S06080",
    "name": "Calbenzano",
    "type": "rail",
    "geo": {
      "lat": -9.019376,
      "lng": 4.511247
    }
  },
  {
    "id": "IT-S02307",
    "name": "Calceranica",
    "type": "rail",
    "geo": {
      "lat": 46.007312,
      "lng": 11.240719
    }
  },
  {
    "id": "IT-S11455",
    "name": "Calciano",
    "type": "rail",
    "geo": {
      "lat": 40.595117,
      "lng": 16.202526
    }
  },
  {
    "id": "IT-S01117",
    "name": "Calde'",
    "type": "rail",
    "geo": {
      "lat": 45.945709,
      "lng": 8.663246
    }
  },
  {
    "id": "IT-S05010",
    "name": "Calderara-bargellino",
    "type": "rail",
    "geo": {
      "lat": 44.544207,
      "lng": 11.267472
    }
  },
  {
    "id": "IT-S02437",
    "name": "Caldiero",
    "type": "rail",
    "geo": {
      "lat": 45.41407,
      "lng": 11.169753
    }
  },
  {
    "id": "IT-S02308",
    "name": "Caldonazzo",
    "type": "rail",
    "geo": {
      "lat": 45.997476,
      "lng": 11.264562
    }
  },
  {
    "id": "IT-S06417",
    "name": "Calenzano",
    "type": "rail",
    "geo": {
      "lat": 43.856416,
      "lng": 11.145214
    }
  },
  {
    "id": "IT-M286",
    "name": "California",
    "type": "metro",
    "geo": {
      "lat": 45.4577548,
      "lng": 9.1606657
    }
  },
  {
    "id": "IT-S09620",
    "name": "Calitri Pescopagano",
    "type": "rail",
    "geo": {
      "lat": 40.884932,
      "lng": 15.427962
    }
  },
  {
    "id": "IT-S02047",
    "name": "Calliano",
    "type": "rail",
    "geo": {
      "lat": 45.937001,
      "lng": 11.095018
    }
  },
  {
    "id": "IT-S01524",
    "name": "Calolziocorte Olginate",
    "type": "rail",
    "geo": {
      "lat": 45.801753,
      "lng": 9.427144
    }
  },
  {
    "id": "IT-S11815",
    "name": "Calopezzati",
    "type": "rail",
    "geo": {
      "lat": 39.579022,
      "lng": 16.819361
    }
  },
  {
    "id": "IT-S12270",
    "name": "Caltagirone",
    "type": "rail",
    "geo": {
      "lat": 37.229153,
      "lng": 14.527869
    }
  },
  {
    "id": "IT-S12381",
    "name": "Caltanissetta Centrale",
    "type": "rail",
    "geo": {
      "lat": 37.488496,
      "lng": 14.057519
    }
  },
  {
    "id": "IT-S12380",
    "name": "Caltanissetta Xirbi",
    "type": "rail",
    "geo": {
      "lat": 37.536392,
      "lng": 14.056996
    }
  },
  {
    "id": "IT-S00020",
    "name": "Caltignaga",
    "type": "rail",
    "geo": {
      "lat": 45.519173,
      "lng": 8.591613
    }
  },
  {
    "id": "IT-S01503",
    "name": "Calusco",
    "type": "rail",
    "geo": {
      "lat": 45.68428,
      "lng": 9.47083
    }
  },
  {
    "id": "IT-S00158",
    "name": "Caluso",
    "type": "rail",
    "geo": {
      "lat": 45.303193,
      "lng": 7.90257
    }
  },
  {
    "id": "IT-S01843",
    "name": "Calvisano",
    "type": "rail",
    "geo": {
      "lat": 45.346561,
      "lng": 10.34921
    }
  },
  {
    "id": "IT-S06043",
    "name": "Camaiore Lido Capezzano",
    "type": "rail",
    "geo": {
      "lat": 43.91219,
      "lng": 10.247543
    }
  },
  {
    "id": "IT-S06804",
    "name": "Cambiano",
    "type": "rail",
    "geo": {
      "lat": 43.631183,
      "lng": 10.958997
    }
  },
  {
    "id": "IT-S00456",
    "name": "Cambiano Santena",
    "type": "rail",
    "geo": {
      "lat": 44.966381,
      "lng": 7.773217
    }
  },
  {
    "id": "IT-S07021",
    "name": "Camerano Aspio",
    "type": "rail",
    "geo": {
      "lat": 43.529724,
      "lng": 13.52069
    }
  },
  {
    "id": "IT-S12207",
    "name": "Cammarata S.giovanni Gemini",
    "type": "rail",
    "geo": {
      "lat": 37.653328,
      "lng": 13.673794
    }
  },
  {
    "id": "IT-S01316",
    "name": "Camnago-lentate",
    "type": "rail",
    "geo": {
      "lat": 45.66837,
      "lng": 9.133284
    }
  },
  {
    "id": "IT-S04716",
    "name": "Camogli S.fruttuoso",
    "type": "rail",
    "geo": {
      "lat": 44.348017,
      "lng": 9.156544
    }
  },
  {
    "id": "IT-S09825",
    "name": "Campagna Serre Persano",
    "type": "rail",
    "geo": {
      "lat": 40.595682,
      "lng": 15.113941
    }
  },
  {
    "id": "IT-S02837",
    "name": "Campagnalupia - Camponogara",
    "type": "rail",
    "geo": {
      "lat": 45.366785,
      "lng": 12.093485
    }
  },
  {
    "id": "IT-S07219",
    "name": "Campello sul Clitunno",
    "type": "rail",
    "geo": {
      "lat": 42.822837,
      "lng": 12.761427
    }
  },
  {
    "id": "IT-S13115",
    "name": "Campi Salentina",
    "type": "rail"
  },
  {
    "id": "IT-S06031",
    "name": "Campiglia Marittima",
    "type": "rail",
    "geo": {
      "lat": 43.017269,
      "lng": 10.586636
    }
  },
  {
    "id": "IT-S08706",
    "name": "Campo di Carne",
    "type": "rail",
    "geo": {
      "lat": 41.552088,
      "lng": 12.634976
    }
  },
  {
    "id": "IT-S08903",
    "name": "Campo di Giove",
    "type": "rail",
    "geo": {
      "lat": 42.008134,
      "lng": 14.041552
    }
  },
  {
    "id": "IT-S08919",
    "name": "Campo di Giove-monte Maiella",
    "type": "rail",
    "geo": {
      "lat": 41.993296,
      "lng": 14.0691
    }
  },
  {
    "id": "IT-S09626",
    "name": "Campo di Nusco",
    "type": "rail",
    "geo": {
      "lat": 40.879143,
      "lng": 15.129255
    }
  },
  {
    "id": "IT-S02007",
    "name": "Campo di Trens",
    "type": "rail",
    "geo": {
      "lat": 46.869223,
      "lng": 11.488315
    }
  },
  {
    "id": "IT-S04105",
    "name": "Campo Ligure-masone",
    "type": "rail",
    "geo": {
      "lat": 44.530916,
      "lng": 8.700888
    }
  },
  {
    "id": "IT-S09459",
    "name": "Campobasso",
    "type": "rail",
    "geo": {
      "lat": 41.558212,
      "lng": 14.663815
    }
  },
  {
    "id": "IT-S12112",
    "name": "Campobello di Mazara",
    "type": "rail",
    "geo": {
      "lat": 37.636243,
      "lng": 12.733253
    }
  },
  {
    "id": "IT-S12385",
    "name": "Campobello Ravanusa",
    "type": "rail",
    "geo": {
      "lat": 37.265672,
      "lng": 13.946256
    }
  },
  {
    "id": "IT-S02527",
    "name": "Campodarsego",
    "type": "rail",
    "geo": {
      "lat": 45.505661,
      "lng": 11.900902
    }
  },
  {
    "id": "IT-S12017",
    "name": "Campofelice",
    "type": "rail",
    "geo": {
      "lat": 37.992404,
      "lng": 13.876701
    }
  },
  {
    "id": "IT-S12211",
    "name": "Campofranco",
    "type": "rail",
    "geo": {
      "lat": 37.509662,
      "lng": 13.68678
    }
  },
  {
    "id": "IT-S09505",
    "name": "Campolattaro",
    "type": "rail",
    "geo": {
      "lat": 41.285869,
      "lng": 14.726853
    }
  },
  {
    "id": "IT-S08602",
    "name": "Campoleone",
    "type": "rail",
    "geo": {
      "lat": 41.642536,
      "lng": 12.648392
    }
  },
  {
    "id": "IT-S09462",
    "name": "Campolieto Monacilioni",
    "type": "rail",
    "geo": {
      "lat": 41.642573,
      "lng": 14.76544
    }
  },
  {
    "id": "IT-S02840",
    "name": "Campolongo Maggiore",
    "type": "rail",
    "geo": {
      "lat": 45.31862,
      "lng": 12.05364
    }
  },
  {
    "id": "IT-S11454",
    "name": "Campomaggiore",
    "type": "rail",
    "geo": {
      "lat": 40.550772,
      "lng": 16.086766
    }
  },
  {
    "id": "IT-S11020",
    "name": "Campomarino",
    "type": "rail",
    "geo": {
      "lat": 41.957295,
      "lng": 15.042338
    }
  },
  {
    "id": "IT-S12815",
    "name": "Campomela",
    "type": "rail",
    "geo": {
      "lat": 40.68139,
      "lng": 8.638875
    }
  },
  {
    "id": "IT-S06659",
    "name": "Campomigliaio",
    "type": "rail",
    "geo": {
      "lat": 43.93722,
      "lng": 11.303601
    }
  },
  {
    "id": "IT-S11745",
    "name": "Campora S.giovanni Serra Aiello",
    "type": "rail",
    "geo": {
      "lat": 39.066062,
      "lng": 16.091022
    }
  },
  {
    "id": "IT-S00889",
    "name": "Campore",
    "type": "rail",
    "geo": {
      "lat": 45.403067,
      "lng": 7.622602
    }
  },
  {
    "id": "IT-S06324",
    "name": "Camporgiano",
    "type": "rail",
    "geo": {
      "lat": 44.161446,
      "lng": 10.334849
    }
  },
  {
    "id": "IT-S02525",
    "name": "Camposampiero",
    "type": "rail",
    "geo": {
      "lat": 45.568868,
      "lng": 11.928604
    }
  },
  {
    "id": "IT-S05314",
    "name": "Camposanto",
    "type": "rail",
    "geo": {
      "lat": 44.788413,
      "lng": 11.143075
    }
  },
  {
    "id": "IT-M298",
    "name": "Campus Universitario",
    "type": "metro",
    "geo": {
      "lat": 38.8659405,
      "lng": 16.5784516
    }
  },
  {
    "id": "IT-S06921",
    "name": "Camucia Cortona",
    "type": "rail",
    "geo": {
      "lat": 43.261632,
      "lng": 11.971169
    }
  },
  {
    "id": "IT-S05709",
    "name": "Canaro",
    "type": "rail",
    "geo": {
      "lat": 44.92297,
      "lng": 11.67523
    }
  },
  {
    "id": "IT-S08735",
    "name": "Cancelliera",
    "type": "rail",
    "geo": {
      "lat": 41.711482,
      "lng": 12.621561
    }
  },
  {
    "id": "IT-S09213",
    "name": "Cancello",
    "type": "rail",
    "geo": {
      "lat": 40.994233,
      "lng": 14.419613
    }
  },
  {
    "id": "IT-S09002",
    "name": "Cancello Arnone",
    "type": "rail",
    "geo": {
      "lat": 41.063369,
      "lng": 14.02901
    }
  },
  {
    "id": "IT-S11204",
    "name": "Candela-s.agata di Puglia",
    "type": "rail",
    "geo": {
      "lat": 41.151439,
      "lng": 15.533163
    }
  },
  {
    "id": "IT-S00071",
    "name": "Candelo",
    "type": "rail",
    "geo": {
      "lat": 45.547441,
      "lng": 8.100108
    }
  },
  {
    "id": "IT-S00157",
    "name": "Candia Canavese",
    "type": "rail",
    "geo": {
      "lat": 45.329824,
      "lng": 7.891826
    }
  },
  {
    "id": "IT-S00333",
    "name": "Candia Lomellina",
    "type": "rail",
    "geo": {
      "lat": 45.179915,
      "lng": 8.59316
    }
  },
  {
    "id": "IT-S11105",
    "name": "Candida",
    "type": "rail",
    "geo": {
      "lat": 41.346664,
      "lng": 15.996588
    }
  },
  {
    "id": "IT-S00512",
    "name": "Candiolo",
    "type": "rail",
    "geo": {
      "lat": 44.961155,
      "lng": 7.598973
    }
  },
  {
    "id": "IT-S01011",
    "name": "Candoglia Ornavasso",
    "type": "rail",
    "geo": {
      "lat": 45.977489,
      "lng": 8.419715
    }
  },
  {
    "id": "IT-S01034",
    "name": "Canegrate",
    "type": "rail",
    "geo": {
      "lat": 45.569349,
      "lng": 8.926734
    }
  },
  {
    "id": "IT-S00832",
    "name": "Canelli",
    "type": "rail",
    "geo": {
      "lat": 44.716716,
      "lng": 8.294544
    }
  },
  {
    "id": "IT-M328",
    "name": "Canepari",
    "type": "metro",
    "geo": {
      "lat": 44.4327982,
      "lng": 8.8936044
    }
  },
  {
    "id": "IT-S07429",
    "name": "Canetra",
    "type": "rail",
    "geo": {
      "lat": 42.391623,
      "lng": 13.029043
    }
  },
  {
    "id": "IT-S12375",
    "name": "Canicatti'",
    "type": "rail",
    "geo": {
      "lat": 37.359898,
      "lng": 13.855264
    }
  },
  {
    "id": "IT-S12812",
    "name": "Caniga",
    "type": "rail",
    "geo": {
      "lat": 40.716116,
      "lng": 8.526395
    }
  },
  {
    "id": "IT-S08812",
    "name": "Canistro",
    "type": "rail",
    "geo": {
      "lat": 41.940687,
      "lng": 13.412172
    }
  },
  {
    "id": "IT-S07009",
    "name": "Cannara",
    "type": "rail",
    "geo": {
      "lat": 43.019591,
      "lng": 12.628709
    }
  },
  {
    "id": "IT-S11406",
    "name": "Canne della Battaglia",
    "type": "rail",
    "geo": {
      "lat": 41.294519,
      "lng": 16.146274
    }
  },
  {
    "id": "IT-S01848",
    "name": "Canneto Sull'oglio",
    "type": "rail",
    "geo": {
      "lat": 45.15018,
      "lng": 10.3717
    }
  },
  {
    "id": "IT-S12330",
    "name": "Cannizzaro",
    "type": "rail",
    "geo": {
      "lat": 37.546971,
      "lng": 15.129807
    }
  },
  {
    "id": "IT-S13195",
    "name": "Cannole",
    "type": "rail"
  },
  {
    "id": "IT-S11402",
    "name": "Canosa di Puglia",
    "type": "rail",
    "geo": {
      "lat": 41.218556,
      "lng": 16.053906
    }
  },
  {
    "id": "IT-S07943",
    "name": "Canoscio",
    "type": "rail",
    "geo": {
      "lat": 43.361153,
      "lng": 12.233296
    }
  },
  {
    "id": "IT-S08902",
    "name": "Cansano",
    "type": "rail",
    "geo": {
      "lat": 41.983172,
      "lng": 13.996947
    }
  },
  {
    "id": "IT-S08907",
    "name": "Cansano Scavi di Ocriticum",
    "type": "rail",
    "geo": {
      "lat": 41.981004,
      "lng": 13.984711
    }
  },
  {
    "id": "IT-S00841",
    "name": "Cantalupo",
    "type": "rail",
    "geo": {
      "lat": 44.864787,
      "lng": 8.551357
    }
  },
  {
    "id": "IT-S09451",
    "name": "Cantalupo del Sannio",
    "type": "rail",
    "geo": {
      "lat": 41.5174,
      "lng": 14.6671
    }
  },
  {
    "id": "IT-S01206",
    "name": "Cantello Gaggiolo",
    "type": "rail",
    "geo": {
      "lat": 45.837818,
      "lng": 8.907397
    }
  },
  {
    "id": "IT-S01451",
    "name": "Cantu'",
    "type": "rail",
    "geo": {
      "lat": 45.752399,
      "lng": 9.130087
    }
  },
  {
    "id": "IT-S01313",
    "name": "Cantu'-cermenate",
    "type": "rail",
    "geo": {
      "lat": 45.716236,
      "lng": 9.099284
    }
  },
  {
    "id": "IT-S01099",
    "name": "Canzo",
    "type": "rail",
    "geo": {
      "lat": 45.849053,
      "lng": 9.270187
    }
  },
  {
    "id": "IT-S01970",
    "name": "Caorso",
    "type": "rail",
    "geo": {
      "lat": 45.042048,
      "lng": 9.868157
    }
  },
  {
    "id": "IT-S11702",
    "name": "Capaccio Roccadaspide",
    "type": "rail",
    "geo": {
      "lat": 40.455624,
      "lng": 15.013443
    }
  },
  {
    "id": "IT-S12128",
    "name": "Capaci",
    "type": "rail",
    "geo": {
      "lat": 38.176889,
      "lng": 13.238345
    }
  },
  {
    "id": "IT-S12145",
    "name": "Capaci",
    "type": "rail",
    "geo": {
      "lat": 38.176889,
      "lng": 13.238345
    }
  },
  {
    "id": "IT-S08006",
    "name": "Capalbio",
    "type": "rail",
    "geo": {
      "lat": 42.408245,
      "lng": 11.371062
    }
  },
  {
    "id": "IT-S08672",
    "name": "Capannelle",
    "type": "rail",
    "geo": {
      "lat": 41.83074,
      "lng": 12.568679
    }
  },
  {
    "id": "IT-S13108",
    "name": "Capece",
    "type": "rail"
  },
  {
    "id": "IT-S08850",
    "name": "Capistrello",
    "type": "rail",
    "geo": {
      "lat": 41.970518,
      "lng": 13.399113
    }
  },
  {
    "id": "IT-S11734",
    "name": "Capo Bonifati",
    "type": "rail",
    "geo": {
      "lat": 39.558389,
      "lng": 15.874183
    }
  },
  {
    "id": "IT-S12030",
    "name": "Capo D'orlando-naso",
    "type": "rail",
    "geo": {
      "lat": 38.158043,
      "lng": 14.744865
    }
  },
  {
    "id": "IT-S01771",
    "name": "Capo di Ponte",
    "type": "rail",
    "geo": {
      "lat": 46.03099,
      "lng": 10.346512
    }
  },
  {
    "id": "IT-S11858",
    "name": "Capo Spartivento",
    "type": "rail",
    "geo": {
      "lat": 37.924778,
      "lng": 16.058342
    }
  },
  {
    "id": "IT-S08804",
    "name": "Capocroce",
    "type": "rail",
    "geo": {
      "lat": 41.400633,
      "lng": 13.204673
    }
  },
  {
    "id": "IT-S07215",
    "name": "Capodacqua Pieve Fanonica",
    "type": "rail",
    "geo": {
      "lat": 43.026769,
      "lng": 12.7541
    }
  },
  {
    "id": "IT-S06083",
    "name": "Capolona",
    "type": "rail",
    "geo": {
      "lat": -9.019376,
      "lng": 4.511247
    }
  },
  {
    "id": "IT-S08525",
    "name": "Cappelle-magliano",
    "type": "rail",
    "geo": {
      "lat": 42.05956,
      "lng": 13.372411
    }
  },
  {
    "id": "IT-S01603",
    "name": "Capralba",
    "type": "rail",
    "geo": {
      "lat": 45.443524,
      "lng": 9.640019
    }
  },
  {
    "id": "IT-S08311",
    "name": "Capranica-sutri",
    "type": "rail",
    "geo": {
      "lat": 42.245178,
      "lng": 12.157403
    }
  },
  {
    "id": "IT-S08110",
    "name": "Caprarola",
    "type": "rail",
    "geo": {
      "lat": 42.303815,
      "lng": 12.258238
    }
  },
  {
    "id": "IT-S09061",
    "name": "Capriati al Volturno",
    "type": "rail",
    "geo": {
      "lat": 41.44279,
      "lng": 14.070664
    }
  },
  {
    "id": "IT-S01622",
    "name": "Capriolo",
    "type": "rail",
    "geo": {
      "lat": 45.64556,
      "lng": 9.933806
    }
  },
  {
    "id": "IT-S03301",
    "name": "Capriva",
    "type": "rail",
    "geo": {
      "lat": 45.938764,
      "lng": 13.517494
    }
  },
  {
    "id": "IT-S09208",
    "name": "Capua",
    "type": "rail",
    "geo": {
      "lat": 41.101418,
      "lng": 14.210516
    }
  },
  {
    "id": "IT-S13118",
    "name": "Capurso",
    "type": "rail"
  },
  {
    "id": "IT-S01486",
    "name": "Carate-calo'",
    "type": "rail",
    "geo": {
      "lat": 45.676425,
      "lng": 9.252132
    }
  },
  {
    "id": "IT-S01602",
    "name": "Caravaggio",
    "type": "rail",
    "geo": {
      "lat": 45.4913,
      "lng": 9.6378
    }
  },
  {
    "id": "IT-S05120",
    "name": "Carbona",
    "type": "rail",
    "geo": {
      "lat": 44.24686,
      "lng": 11.096182
    }
  },
  {
    "id": "IT-S04300",
    "name": "Carbonara Scrivia",
    "type": "rail",
    "geo": {
      "lat": 44.860173,
      "lng": 8.853772
    }
  },
  {
    "id": "IT-S12818",
    "name": "Carbonia Serbariu",
    "type": "rail",
    "geo": {
      "lat": 39.169508,
      "lng": 8.509186
    }
  },
  {
    "id": "IT-S12972",
    "name": "Carbonia Stato",
    "type": "rail",
    "geo": {
      "lat": 39.163568,
      "lng": 8.513298
    }
  },
  {
    "id": "IT-M116",
    "name": "Carducci-Molinette",
    "type": "metro",
    "geo": {
      "lat": 45.0424484,
      "lng": 7.6711553
    }
  },
  {
    "id": "IT-S00839",
    "name": "Carentino",
    "type": "rail",
    "geo": {
      "lat": 44.831303,
      "lng": 8.470474
    }
  },
  {
    "id": "IT-S11818",
    "name": "Cariati",
    "type": "rail",
    "geo": {
      "lat": 39.49674,
      "lng": 16.952
    }
  },
  {
    "id": "IT-S01315",
    "name": "Carimate",
    "type": "rail",
    "geo": {
      "lat": 45.697094,
      "lng": 9.107188
    }
  },
  {
    "id": "IT-S12127",
    "name": "Carini",
    "type": "rail",
    "geo": {
      "lat": 38.147417,
      "lng": 13.18663
    }
  },
  {
    "id": "IT-S12799",
    "name": "Carini Torre Ciachea",
    "type": "rail",
    "geo": {
      "lat": 38.163416,
      "lng": 13.218283
    }
  },
  {
    "id": "IT-S00055",
    "name": "Carisio",
    "type": "rail",
    "geo": {
      "lat": 45.403164,
      "lng": 8.21249
    }
  },
  {
    "id": "IT-S00601",
    "name": "Carmagnola",
    "type": "rail",
    "geo": {
      "lat": 44.847063,
      "lng": 7.72777
    }
  },
  {
    "id": "IT-S13147",
    "name": "Carmiano-magliano",
    "type": "rail"
  },
  {
    "id": "IT-S02532",
    "name": "Carmignano di Brenta",
    "type": "rail",
    "geo": {
      "lat": 45.621465,
      "lng": 11.714771
    }
  },
  {
    "id": "IT-S01511",
    "name": "Carnate Usmate",
    "type": "rail",
    "geo": {
      "lat": 45.653188,
      "lng": 9.374939
    }
  },
  {
    "id": "IT-S03016",
    "name": "Carnia",
    "type": "rail",
    "geo": {
      "lat": 46.373629,
      "lng": 13.133163
    }
  },
  {
    "id": "IT-S12025",
    "name": "Caronia",
    "type": "rail",
    "geo": {
      "lat": 38.034353,
      "lng": 14.443766
    }
  },
  {
    "id": "IT-S01076",
    "name": "Caronno Pertusella",
    "type": "rail",
    "geo": {
      "lat": 45.5982,
      "lng": 9.058225
    }
  },
  {
    "id": "IT-S11133",
    "name": "Carovigno",
    "type": "rail",
    "geo": {
      "lat": 40.737174,
      "lng": 17.683779
    }
  },
  {
    "id": "IT-S08914",
    "name": "Carovilli-roccasicura",
    "type": "rail",
    "geo": {
      "lat": 41.712435,
      "lng": 14.299556
    }
  },
  {
    "id": "IT-S02502",
    "name": "Carpane'-valstagna",
    "type": "rail",
    "geo": {
      "lat": 45.860084,
      "lng": 11.661186
    }
  },
  {
    "id": "IT-S02349",
    "name": "Carpi",
    "type": "rail",
    "geo": {
      "lat": 44.782908,
      "lng": 10.891878
    }
  },
  {
    "id": "IT-S00971",
    "name": "Carpignano Sesia",
    "type": "rail",
    "geo": {
      "lat": 45.528939,
      "lng": 8.422905
    }
  },
  {
    "id": "IT-S09050",
    "name": "Carpinone",
    "type": "rail",
    "geo": {
      "lat": 41.588185,
      "lng": 14.327031
    }
  },
  {
    "id": "IT-S06005",
    "name": "Carrara Avenza",
    "type": "rail",
    "geo": {
      "lat": 44.051176,
      "lng": 10.062854
    }
  },
  {
    "id": "IT-S08533",
    "name": "Carrito-ortona",
    "type": "rail",
    "geo": {
      "lat": 42.026062,
      "lng": 13.720184
    }
  },
  {
    "id": "IT-S00738",
    "name": "Carru` Clavesana",
    "type": "rail",
    "geo": {
      "lat": 44.479548,
      "lng": 7.891414
    }
  },
  {
    "id": "IT-S12326",
    "name": "Carruba",
    "type": "rail",
    "geo": {
      "lat": 37.68885,
      "lng": 15.191292
    }
  },
  {
    "id": "IT-S08519",
    "name": "Carsoli",
    "type": "rail",
    "geo": {
      "lat": 42.095777,
      "lng": 13.08064
    }
  },
  {
    "id": "IT-S01091",
    "name": "Carugo - Giussano",
    "type": "rail",
    "geo": {
      "lat": 45.705765,
      "lng": 9.198916
    }
  },
  {
    "id": "IT-S08730",
    "name": "Casabianca",
    "type": "rail",
    "geo": {
      "lat": 41.788331,
      "lng": 12.604424
    }
  },
  {
    "id": "IT-S09465",
    "name": "Casacalenda Guardialfiera",
    "type": "rail",
    "geo": {
      "lat": 41.738211,
      "lng": 14.84945
    }
  },
  {
    "id": "IT-S11309",
    "name": "Casal Sabini",
    "type": "rail",
    "geo": {
      "lat": 40.799021,
      "lng": 16.647908
    }
  },
  {
    "id": "IT-S07821",
    "name": "Casalbordino Pollutri",
    "type": "rail",
    "geo": {
      "lat": 42.193536,
      "lng": 14.633306
    }
  },
  {
    "id": "IT-S09910",
    "name": "Casalbuono",
    "type": "rail",
    "geo": {
      "lat": 40.214093,
      "lng": 15.686095
    }
  },
  {
    "id": "IT-S01609",
    "name": "Casalbuttano",
    "type": "rail",
    "geo": {
      "lat": 45.255431,
      "lng": 9.962431
    }
  },
  {
    "id": "IT-S00314",
    "name": "Casale Monferrato",
    "type": "rail",
    "geo": {
      "lat": 45.13393,
      "lng": 8.460302
    }
  },
  {
    "id": "IT-S00179",
    "name": "Casale Popolo",
    "type": "rail",
    "geo": {
      "lat": 45.160434,
      "lng": 8.44055
    }
  },
  {
    "id": "IT-S05967",
    "name": "Casalecchio Ceretolo",
    "type": "rail",
    "geo": {
      "lat": 44.480698,
      "lng": 11.260907
    }
  },
  {
    "id": "IT-S05101",
    "name": "Casalecchio di Reno",
    "type": "rail",
    "geo": {
      "lat": 44.474277,
      "lng": 11.2761
    }
  },
  {
    "id": "IT-S05111",
    "name": "Casalecchio Garibaldi",
    "type": "rail",
    "geo": {
      "lat": 44.482989,
      "lng": 11.272555
    }
  },
  {
    "id": "IT-S05968",
    "name": "Casalecchio Palasport",
    "type": "rail"
  },
  {
    "id": "IT-S00972",
    "name": "Casaleggio",
    "type": "rail",
    "geo": {
      "lat": 45.491301,
      "lng": 8.49037
    }
  },
  {
    "id": "IT-S01604",
    "name": "Casaletto Vaprio",
    "type": "rail",
    "geo": {
      "lat": 45.40864,
      "lng": 9.63165
    }
  },
  {
    "id": "IT-S05982",
    "name": "Casalgrande",
    "type": "rail"
  },
  {
    "id": "IT-S01850",
    "name": "Casalmaggiore",
    "type": "rail",
    "geo": {
      "lat": 44.993037,
      "lng": 10.424866
    }
  },
  {
    "id": "IT-S09216",
    "name": "Casalnuovo",
    "type": "rail",
    "geo": {
      "lat": 40.915665,
      "lng": 14.352868
    }
  },
  {
    "id": "IT-S01827",
    "name": "Casalpusterlengo",
    "type": "rail",
    "geo": {
      "lat": 45.18235,
      "lng": 9.653666
    }
  },
  {
    "id": "IT-S13099",
    "name": "Casamassima",
    "type": "rail"
  },
  {
    "id": "IT-S13157",
    "name": "Casarano",
    "type": "rail"
  },
  {
    "id": "IT-S02830",
    "name": "Casarsa",
    "type": "rail",
    "geo": {
      "lat": 45.953177,
      "lng": 12.840461
    }
  },
  {
    "id": "IT-M99",
    "name": "Casazza",
    "type": "metro",
    "geo": {
      "lat": 45.575663,
      "lng": 10.2305174
    }
  },
  {
    "id": "IT-S06505",
    "name": "Cascina",
    "type": "rail",
    "geo": {
      "lat": 43.6746,
      "lng": 10.545311
    }
  },
  {
    "id": "IT-M120",
    "name": "Cascina Antonietta",
    "type": "metro",
    "geo": {
      "lat": 45.5419227,
      "lng": 9.4237109
    }
  },
  {
    "id": "IT-M190",
    "name": "Cascina Burrona",
    "type": "metro",
    "geo": {
      "lat": 45.5173026,
      "lng": 9.297902
    }
  },
  {
    "id": "IT-M110",
    "name": "Cascina Gobba",
    "type": "metro",
    "geo": {
      "lat": 45.5111613,
      "lng": 9.2606304
    }
  },
  {
    "id": "IT-M325",
    "name": "Cascine Vica (in costruzione)",
    "type": "metro",
    "geo": {
      "lat": 45.0716021,
      "lng": 7.5493281
    }
  },
  {
    "id": "IT-S00087",
    "name": "Caselle Torinese",
    "type": "rail",
    "geo": {
      "lat": 45.176082,
      "lng": 7.644519
    }
  },
  {
    "id": "IT-S02836",
    "name": "Casello 11",
    "type": "rail",
    "geo": {
      "lat": 45.385527,
      "lng": 12.09712
    }
  },
  {
    "id": "IT-S02838",
    "name": "Casello 8",
    "type": "rail",
    "geo": {
      "lat": 45.356234,
      "lng": 12.091209
    }
  },
  {
    "id": "IT-S07027",
    "name": "Casello Km 19",
    "type": "rail",
    "geo": {
      "lat": 41.978522,
      "lng": 13.979691
    }
  },
  {
    "id": "IT-S09211",
    "name": "Caserta",
    "type": "rail",
    "geo": {
      "lat": 41.06885,
      "lng": 14.328319
    }
  },
  {
    "id": "IT-S05184",
    "name": "Casinalbo",
    "type": "rail"
  },
  {
    "id": "IT-S06751",
    "name": "Casino di Terra",
    "type": "rail",
    "geo": {
      "lat": 43.328581,
      "lng": 10.662975
    }
  },
  {
    "id": "IT-S01457",
    "name": "Casletto-rogeno",
    "type": "rail",
    "geo": {
      "lat": 45.786184,
      "lng": 9.275391
    }
  },
  {
    "id": "IT-S01758",
    "name": "Caslino al Piano",
    "type": "rail",
    "geo": {
      "lat": 45.711106,
      "lng": 9.040214
    }
  },
  {
    "id": "IT-S01098",
    "name": "Caslino D'erba",
    "type": "rail",
    "geo": {
      "lat": 45.835149,
      "lng": 9.23243
    }
  },
  {
    "id": "IT-S07991",
    "name": "Casoli",
    "type": "rail",
    "geo": {
      "lat": -9.019376,
      "lng": 4.511247
    }
  },
  {
    "id": "IT-S01029",
    "name": "Casorate Sempione",
    "type": "rail",
    "geo": {
      "lat": 45.675026,
      "lng": 8.743873
    }
  },
  {
    "id": "IT-S09009",
    "name": "Casoria-afragola",
    "type": "rail",
    "geo": {
      "lat": 40.907598,
      "lng": 14.298671
    }
  },
  {
    "id": "IT-S01490",
    "name": "Cassago-nibionno-bulciago",
    "type": "rail",
    "geo": {
      "lat": 45.746211,
      "lng": 9.279966
    }
  },
  {
    "id": "IT-S11900",
    "name": "Cassano All`ionio",
    "type": "rail",
    "geo": {
      "lat": 39.726326,
      "lng": 16.35218
    }
  },
  {
    "id": "IT-S01707",
    "name": "Cassano D'adda",
    "type": "rail",
    "geo": {
      "lat": 45.514463,
      "lng": 9.512782
    }
  },
  {
    "id": "IT-S09611",
    "name": "Cassano Irpino",
    "type": "rail",
    "geo": {
      "lat": 40.869227,
      "lng": 15.031213
    }
  },
  {
    "id": "IT-S04302",
    "name": "Cassano Spinola",
    "type": "rail",
    "geo": {
      "lat": 44.762631,
      "lng": 8.858833
    }
  },
  {
    "id": "IT-S12427",
    "name": "Cassibile",
    "type": "rail",
    "geo": {
      "lat": 36.962581,
      "lng": 15.191895
    }
  },