[
  {
    "id": "ITM101",
    "name": "A2A Lamarmora",
    "type": "metro",
    "geo": {
      "lat": 45.5216677,
      "lng": 10.2128527
    },
    "importance": 4
  },
  {
    "id": "CH06013",
    "name": "Aadorf",
    "type": "rail",
    "importance": 4,
    "geo": {
      "lat": 47.488118,
      "lng": 8.903301
    }
  },
  {
    "id": "CH02113",
    "name": "Aarau",
    "type": "rail",
    "importance": 3,
    "geo": {
      "lat": 47.39136,
      "lng": 8.051274
    }
  },
  {
    "id": "CH19685",
    "name": "Aarau Torfeld",
    "type": "rail",
    "importance": 4,
    "geo": {
      "lat": 47.393563,
      "lng": 8.06264
    }
  },
  {
    "id": "CH04404",
    "name": "Aarberg",
    "type": "rail",
    "importance": 4,
    "geo": {
      "lat": 47.044541,
      "lng": 7.278693
    }
  },
  {
    "id": "CH02000",
    "name": "Aarburg-Oftringen",
    "type": "rail",
    "importance": 4,
    "geo": {
      "lat": 47.320268,
      "lng": 7.908223
    }
  },
  {
    "id": "CH30801",
    "name": "Aareschlucht Ost (Bahn)",
    "type": "rail",
    "importance": 4,
    "geo": {
      "lat": 46.712,
      "lng": 8.217895
    }
  },
  {
    "id": "CH30760",
    "name": "Aareschlucht West",
    "type": "rail",
    "importance": 4,
    "geo": {
      "lat": 46.721247,
      "lng": 8.198577
    }
  },
  {
    "id": "CH08153",
    "name": "Aarwangen",
    "type": "rail",
    "importance": 4,
    "geo": {
      "lat": 47.240875,
      "lng": 7.769619
    }
  },
  {
    "id": "CH08154",
    "name": "Aarwangen Schloss",
    "type": "rail",
    "importance": 4,
    "geo": {
      "lat": 47.24518,
      "lng": 7.76362
    }
  },
  {
    "id": "CH08193",
    "name": "Aarwangen Vorstadt",
    "type": "rail",
    "importance": 4,
    "geo": {
      "lat": 47.23749,
      "lng": 7.77131
    }
  },
  {
    "id": "CH03124",
    "name": "Aathal",
    "type": "rail",
    "importance": 4,
    "geo": {
      "lat": 47.335959,
      "lng": 8.765625
    }
  },
  {
    "id": "IT364",
    "name": "Abano Terme",
    "type": "rail",
    "geo": {
      "lat": 45.355339,
      "lng": 11.811421
    },
    "importance": 4
  },
  {
    "id": "IT365",
    "name": "Abbadia Lariana",
    "type": "rail",
    "geo": {
      "lat": 45.895786,
      "lng": 9.335066
    },
    "importance": 4
  },
  {
    "id": "IT366",
    "name": "Abbasanta",
    "type": "rail",
    "geo": {
      "lat": 40.126667,
      "lng": 8.816135
    },
    "importance": 4
  },
  {
    "id": "IT367",
    "name": "Abbiategrasso",
    "type": "rail",
    "geo": {
      "lat": 45.397588,
      "lng": 8.920445
    },
    "importance": 4
  },
  {
    "id": "ITM152",
    "name": "Abbiategrasso-Chiesa Rossa",
    "type": "metro",
    "geo": {
      "lat": 45.430014,
      "lng": 9.1773223
    },
    "importance": 4
  },
  {
    "id": "IT368",
    "name": "Acate",
    "type": "rail",
    "geo": {
      "lat": 36.996732,
      "lng": 14.425544
    },
    "importance": 4
  },
  {
    "id": "IT369",
    "name": "Acciano",
    "type": "rail",
    "geo": {
      "lat": 42.17675,
      "lng": 13.711102
    },
    "importance": 4
  },
  {
    "id": "IT370",
    "name": "Acerra",
    "type": "rail",
    "geo": {
      "lat": 40.939861,
      "lng": 14.372859
    },
    "importance": 4
  },
  {
    "id": "ITM11",
    "name": "Acilia",
    "type": "metro",
    "geo": {
      "lat": 41.7835343,
      "lng": 12.3608521
    },
    "importance": 4
  },
  {
    "id": "ITM293",
    "name": "Acilia Sud - Dragona",
    "type": "metro",
    "geo": {
      "lat": 41.7760617,
      "lng": 12.3420465
    },
    "importance": 4
  },
  {
    "id": "IT371",
    "name": "Acireale",
    "type": "rail",
    "geo": {
      "lat": 37.595831,
      "lng": 15.161525
    },
    "importance": 4
  },
  {
    "id": "CH05180",
    "name": "Acla da Fontauna",
    "type": "rail",
    "importance": 4,
    "geo": {
      "lat": 46.697174,
      "lng": 8.845791
    }
  },
  {
    "id": "IT372",
    "name": "Acqua Acetosa",
    "type": "rail",
    "geo": {
      "lat": 41.93179,
      "lng": 12.487228
    },
    "importance": 4
  },
  {
    "id": "IT1",
    "name": "Acquafredda",
    "type": "rail",
    "geo": {
      "lat": 40.035529,
      "lng": 15.671849
    },
    "importance": 4
  },
  {
    "id": "IT373",
    "name": "Acquamela",
    "type": "rail",
    "geo": {
      "lat": 40.733401,
      "lng": 14.772197
    },
    "importance": 4
  },
  {
    "id": "IT374",
    "name": "Acquanegra Cremonese",
    "type": "rail",
    "geo": {
      "lat": 45.17194,
      "lng": 9.888607
    },
    "importance": 4
  },
  {
    "id": "IT2",
    "name": "Acquappesa",
    "type": "rail",
    "importance": 4
  },
  {
    "id": "IT5453",
    "name": "Acquasparta",
    "type": "rail",
    "importance": 4
  },
  {
    "id": "IT376",
    "name": "Acquaviva Casteltermini",
    "type": "rail",
    "geo": {
      "lat": 37.569819,
      "lng": 13.674932
    },
    "importance": 4
  },
  {
    "id": "IT377",
    "name": "Acquaviva Delle Fonti",
    "type": "rail",
    "geo": {
      "lat": 40.892867,
      "lng": 16.839915
    },
    "importance": 4
  },
  {
    "id": "IT2499",
    "name": "Acquedolci-S.Fratello",
    "type": "rail",
    "importance": 4
  },
  {
    "id": "IT188",
    "name": "Acqui Terme",
    "type": "rail",
    "geo": {
      "lat": 44.672534,
      "lng": 8.473459
    },
    "importance": 4
  },
  {
    "id": "CH03096",
    "name": "Adliswil",
    "type": "rail",
    "importance": 4,
    "geo": {
      "lat": 47.312274,
      "lng": 8.524254
    }
  },
  {
    "id": "IT378",
    "name": "Adria",
    "type": "rail",
    "geo": {
      "lat": 45.060506,
      "lng": 12.05423
    },
    "importance": 4
  },
  {
    "id": "CH08085",
    "name": "Aefligen",
    "type": "rail",
    "importance": 4,
    "geo": {
      "lat": 47.095594,
      "lng": 7.559253
    }
  },
  {
    "id": "CH00117",
    "name": "Aesch BL",
    "type": "rail",
    "importance": 4,
    "geo": {
      "lat": 47.467745,
      "lng": 7.603068
    }
  },
  {
    "id": "CH02224",
    "name": "Affoltern am Albis",
    "type": "rail",
    "importance": 4,
    "geo": {
      "lat": 47.27607,
      "lng": 8.446595
    }
  },
  {
    "id": "CH08275",
    "name": "Affoltern-Weier",
    "type": "rail",
    "importance": 4,
    "geo": {
      "lat": 47.061917,
      "lng": 7.749855
    }
  },
  {
    "id": "ITM166",
    "name": "Affori Centro",
    "type": "metro",
    "geo": {
      "lat": 45.5135394,
      "lng": 9.1739662
    },
    "importance": 4
  },
  {
    "id": "ITM52",
    "name": "Affori FN",
    "type": "metro",
    "geo": {
      "lat": 45.5216145,
      "lng": 9.1682909
    },
    "importance": 4
  },
  {
    "id": "IT4",
    "name": "Africo Nuovo",
    "type": "rail",
    "geo": {
      "lat": 38.052651,
      "lng": 16.143902
    },
    "importance": 4
  },
  {
    "id": "IT379",
    "name": "Agliano Castelnuovo Calcea",
    "type": "rail",
    "geo": {
      "lat": 44.786112,
      "lng": 8.267733
    },
    "importance": 4
  },
  {
    "id": "CH05395",
    "name": "Agno",
    "type": "rail",
    "importance": 4,
    "geo": {
      "lat": 45.99593,
      "lng": 8.90092
    }
  },
  {
    "id": "IT3252",
    "name": "Agognate",
    "type": "rail",
    "geo": {
      "lat": 45.47092,
      "lng": 8.58017
    },
    "importance": 4
  },
  {
    "id": "IT383",
    "name": "Agrigento Bassa",
    "type": "rail",
    "geo": {
      "lat": 37.319244,
      "lng": 13.58812
    },
    "importance": 4
  },
  {
    "id": "IT384",
    "name": "Agrigento Centrale",
    "type": "rail",
    "geo": {
      "lat": 37.309079,
      "lng": 13.584723
    },
    "importance": 3
  },
  {
    "id": "IT5",
    "name": "Agropoli Castellabate",
    "type": "rail",
    "geo": {
      "lat": 40.351642,
      "lng": 15.001761
    },
    "importance": 4
  },
  {
    "id": "IT386",
    "name": "Aielli",
    "type": "rail",
    "geo": {
      "lat": 42.062191,
      "lng": 13.581246
    },
    "importance": 4
  },
  {
    "id": "CH01400",
    "name": "Aigle",
    "type": "rail",
    "importance": 4,
    "geo": {
      "lat": 46.316855,
      "lng": 6.963683
    }
  },
  {
    "id": "CH01468",
    "name": "Aigle-Château",
    "type": "rail",
    "importance": 4,
    "geo": {
      "lat": 46.316872,
      "lng": 6.978921
    }
  },
  {
    "id": "CH01484",
    "name": "Aigle-Dépôt",
    "type": "rail",
    "importance": 4,
    "geo": {
      "lat": 46.31829,
      "lng": 6.97537
    }
  },
  {
    "id": "CH17484",
    "name": "Aigle-Parc Aventure",
    "type": "rail",
    "importance": 4,
    "geo": {
      "lat": 46.3153,
      "lng": 6.98622
    }
  },
  {
    "id": "CH01554",
    "name": "Aigle-Place-du-Marché",
    "type": "rail",
    "importance": 4,
    "geo": {
      "lat": 46.31724,
      "lng": 6.97034
    }
  },
  {
    "id": "IT387",
    "name": "Airasca",
    "type": "rail",
    "geo": {
      "lat": 44.927944,
      "lng": 7.483395
    },
    "importance": 4
  },
  {
    "id": "IT189",
    "name": "Airole",
    "type": "rail",
    "geo": {
      "lat": 43.870478,
      "lng": 7.552975
    },
    "importance": 4
  },
  {
    "id": "CH05201",
    "name": "Airolo",
    "type": "rail",
    "importance": 4,
    "geo": {
      "lat": 46.527526,
      "lng": 8.60862
    }
  },
  {
    "id": "IT388",
    "name": "Airuno",
    "type": "rail",
    "geo": {
      "lat": 45.755491,
      "lng": 9.422322
    },
    "importance": 4
  },
  {
    "id": "IT389",
    "name": "Ala",
    "type": "rail",
    "geo": {
      "lat": 45.7591,
      "lng": 10.996496
    },
    "importance": 4
  },
  {
    "id": "IT390",
    "name": "Alanno",
    "type": "rail",
    "geo": {
      "lat": 42.287264,
      "lng": 14.019411
    },
    "importance": 4
  },
  {
    "id": "IT391",
    "name": "Alano Fener Valdobbiadene",
    "type": "rail",
    "importance": 4
  },
  {
    "id": "IT190",
    "name": "Alassio",
    "type": "rail",
    "geo": {
      "lat": 44.007832,
      "lng": 8.171559
    },
    "importance": 4
  },
  {
    "id": "IT392",
    "name": "Alba",
    "type": "rail",
    "geo": {
      "lat": 44.697811,
      "lng": 8.030866
    },
    "importance": 4
  },
  {
    "id": "IT393",
    "name": "Alba Adriatica-Nereto-Controguerra",
    "type": "rail",
    "geo": {
      "lat": 42.83446,
      "lng": 13.917295
    },
    "importance": 4
  },
  {
    "id": "IT394",
    "name": "Albacina",
    "type": "rail",
    "importance": 4
  },
  {
    "id": "IT779",
    "name": "Albairate-Vermezzo",
    "type": "rail",
    "geo": {
      "lat": 45.404354,
      "lng": 8.958227
    },
    "importance": 4
  },
  {
    "id": "IT395",
    "name": "Albano Di Lucania",
    "type": "rail",
    "geo": {
      "lat": 40.574768,
      "lng": 16.021373
    },
    "importance": 4
  },
  {
    "id": "IT396",
    "name": "Albano Laziale",
    "type": "rail",
    "geo": {
      "lat": 41.726443,
      "lng": 12.658123
    },
    "importance": 4
  },
  {
    "id": "IT397",
    "name": "Albano S.Alessandro",
    "type": "rail",
    "geo": {
      "lat": 45.683,
      "lng": 9.76759
    },
    "importance": 4
  },
  {
    "id": "IT398",
    "name": "Albanova",
    "type": "rail",
    "geo": {
      "lat": 40.996266,
      "lng": 14.128559
    },
    "importance": 4
  },
  {
    "id": "IT399",
    "name": "Albaredo",
    "type": "rail",
    "geo": {
      "lat": 45.670196,
      "lng": 12.015108
    },
    "importance": 4
  },
  {
    "id": "IT401",
    "name": "Albate-Trecallo",
    "type": "rail",
    "geo": {
      "lat": 45.777537,
      "lng": 9.095826
    },
    "importance": 4
  },
  {
    "id": "IT191",
    "name": "Albenga",
    "type": "rail",
    "geo": {
      "lat": 44.047378,
      "lng": 8.2214
    },
    "importance": 4
  },
  {
    "id": "CH04072",
    "name": "Albeuve",
    "type": "rail",
    "importance": 4,
    "geo": {
      "lat": 46.51793,
      "lng": 7.05542
    }
  },
  {
    "id": "IT404",
    "name": "Albinia",
    "type": "rail",
    "geo": {
      "lat": 42.502251,
      "lng": 11.211509
    },
    "importance": 4
  },
  {
    "id": "IT192",
    "name": "Albisola",
    "type": "rail",
    "geo": {
      "lat": 44.33469,
      "lng": 8.5121
    },
    "importance": 4
  },
  {
    "id": "IT405",
    "name": "Albizzate Solbiate Arno",
    "type": "rail",
    "geo": {
      "lat": 45.723289,
      "lng": 8.806117
    },
    "importance": 4
  },
  {
    "id": "IT406",
    "name": "Albonese",
    "type": "rail",
    "geo": {
      "lat": 45.297792,
      "lng": 8.714606
    },
    "importance": 4
  },
  {
    "id": "IT407",
    "name": "Albuzzano",
    "type": "rail",
    "geo": {
      "lat": 45.17238,
      "lng": 9.26174
    },
    "importance": 4
  },
  {
    "id": "IT409",
    "name": "Alcamo Diramazione",
    "type": "rail",
    "geo": {
      "lat": 37.978682,
      "lng": 12.915923
    },
    "importance": 4
  },
  {
    "id": "IT410",
    "name": "Alcantara",
    "type": "rail",
    "geo": {
      "lat": 37.821454,
      "lng": 15.251161
    },
    "importance": 4
  },
  {
    "id": "IT193",
    "name": "Alessandria",
    "type": "rail",
    "geo": {
      "lat": 44.908807,
      "lng": 8.607571
    },
    "importance": 3
  },
  {
    "id": "ITM93",
    "name": "Alessandrino",
    "type": "metro",
    "geo": {
      "lat": 41.8712904,
      "lng": 12.5788298
    },
    "importance": 4
  },
  {
    "id": "IT411",
    "name": "Alfedena-Scontrone",
    "type": "rail",
    "geo": {
      "lat": 41.738518,
      "lng": 14.045086
    },
    "importance": 4
  },
  {
    "id": "IT412",
    "name": "Alfonsine",
    "type": "rail",
    "geo": {
      "lat": 44.512364,
      "lng": 12.039155
    },
    "importance": 4
  },
  {
    "id": "IT413",
    "name": "Ali' Terme",
    "type": "rail",
    "geo": {
      "lat": 38.005116,
      "lng": 15.423676
    },
    "importance": 4
  },
  {
    "id": "IT414",
    "name": "Alice Belcolle",
    "type": "rail",
    "geo": {
      "lat": 44.722643,
      "lng": 8.440083
    },
    "importance": 4
  },
  {
    "id": "CH01035",
    "name": "Allaman",
    "type": "rail",
    "importance": 4,
    "geo": {
      "lat": 46.475754,
      "lng": 6.399697
    }
  },
  {
    "id": "CH00186",
    "name": "Alle",
    "type": "rail",
    "importance": 4,
    "geo": {
      "lat": 47.424229,
      "lng": 7.128249
    }
  },
  {
    "id": "IT415",
    "name": "Allerona-Castel Viscardo",
    "type": "rail",
    "geo": {
      "lat": 42.784702,
      "lng": 12.035633
    },
    "importance": 4
  },
  {
    "id": "CH01378",
    "name": "Allières",
    "type": "rail",
    "importance": 4,
    "geo": {
      "lat": 46.46982,
      "lng": 7.00789
    }
  },
  {
    "id": "CH09357",
    "name": "Alp Grüm",
    "type": "rail",
    "importance": 4,
    "geo": {
      "lat": 46.374507,
      "lng": 10.031235
    }
  },
  {
    "id": "IT416",
    "name": "Alpignano",
    "type": "rail",
    "geo": {
      "lat": 45.091278,
      "lng": 7.523874
    },
    "importance": 4
  },
  {
    "id": "CH08316",
    "name": "Alpnach Dorf",
    "type": "rail",
    "importance": 4,
    "geo": {
      "lat": 46.940591,
      "lng": 8.275345
    }
  },
  {
    "id": "CH08317",
    "name": "Alpnachstad",
    "type": "rail",
    "importance": 4,
    "geo": {
      "lat": 46.955042,
      "lng": 8.277848
    }
  },
  {
    "id": "IT418",
    "name": "Altamura",
    "type": "rail",
    "geo": {
      "lat": 40.838,
      "lng": 16.551667
    },
    "importance": 4
  },
  {
    "id": "IT196",
    "name": "Altare",
    "type": "rail",
    "geo": {
      "lat": 44.33617,
      "lng": 8.332753
    },
    "importance": 4
  },
  {
    "id": "IT419",
    "name": "Altavilla Irpina",
    "type": "rail",
    "geo": {
      "lat": 41.015163,
      "lng": 14.784842
    },
    "importance": 4
  },
  {
    "id": "IT420",
    "name": "Altavilla Milicia",
    "type": "rail",
    "geo": {
      "lat": 38.048194,
      "lng": 13.554273
    },
    "importance": 4
  },
  {
    "id": "IT421",
    "name": "Altavilla Tavernelle",
    "type": "rail",
    "geo": {
      "lat": 45.511801,
      "lng": 11.454374
    },
    "importance": 4
  },
  {
    "id": "CH05113",
    "name": "Altdorf UR",
    "type": "rail",
    "importance": 4,
    "geo": {
      "lat": 46.875739,
      "lng": 8.631575
    }
  },
  {
    "id": "CH03211",
    "name": "Altendorf",
    "type": "rail",
    "importance": 4,
    "geo": {
      "lat": 47.193967,
      "lng": 8.822906
    }
  },
  {
    "id": "CH06389",
    "name": "Alter Zoll",
    "type": "rail",
    "importance": 4,
    "geo": {
      "lat": 47.368581,
      "lng": 9.522039
    }
  },
  {
    "id": "CH03292",
    "name": "Altmatt",
    "type": "rail",
    "importance": 4,
    "geo": {
      "lat": 47.131652,
      "lng": 8.696147
    }
  },
  {
    "id": "CH06125",
    "name": "Altnau",
    "type": "rail",
    "importance": 4,
    "geo": {
      "lat": 47.621368,
      "lng": 9.265918
    }
  },
  {
    "id": "IT422",
    "name": "Altopascio",
    "type": "rail",
    "geo": {
      "lat": 43.817416,
      "lng": 10.672758
    },
    "importance": 4
  },
  {
    "id": "CH06319",
    "name": "Altstätten SG",
    "type": "rail",
    "importance": 4,
    "geo": {
      "lat": 47.374235,
      "lng": 9.55652
    }
  },
  {
    "id": "CH06379",
    "name": "Altstätten Stadt",
    "type": "rail",
    "importance": 4,
    "geo": {
      "lat": 47.376836,
      "lng": 9.537492
    }
  },
  {
    "id": "CH09194",
    "name": "Alvaneu",
    "type": "rail",
    "importance": 4,
    "geo": {
      "lat": 46.671062,
      "lng": 9.651366
    }
  },
  {
    "id": "IT423",
    "name": "Alviano",
    "type": "rail",
    "geo": {
      "lat": 42.591816,
      "lng": 12.25959
    },
    "importance": 4
  },
  {
    "id": "IT8",
    "name": "Amantea",
    "type": "rail",
    "geo": {
      "lat": 39.134384,
      "lng": 16.068673
    },
    "importance": 4
  },
  {
    "id": "IT424",
    "name": "Ambivere Mapello",
    "type": "rail",
    "geo": {
      "lat": 45.72215,
      "lng": 9.55022
    },
    "importance": 4
  },
  {
    "id": "CH05202",
    "name": "Ambrì-Piotta",
    "type": "rail",
    "importance": 4,
    "geo": {
      "lat": 46.510764,
      "lng": 8.689928
    }
  },
  {
    "id": "ITM231",
    "name": "Amendola",
    "type": "metro",
    "geo": {
      "lat": 45.4736967,
      "lng": 9.1509963
    },
    "importance": 4
  },
  {
    "id": "IT9",
    "name": "Amendolara Oriolo",
    "type": "rail",
    "geo": {
      "lat": 39.933823,
      "lng": 16.602897
    },
    "importance": 4
  },
  {
    "id": "IT427",
    "name": "Amorosi Melizzano",
    "type": "rail",
    "geo": {
      "lat": 41.192896,
      "lng": 14.47916
    },
    "importance": 4
  },
  {
    "id": "CH06109",
    "name": "Amriswil",
    "type": "rail",
    "importance": 4,
    "geo": {
      "lat": 47.55045,
      "lng": 9.302227
    }
  },
  {
    "id": "IT428",
    "name": "Anagni-Fiuggi",
    "type": "rail",
    "geo": {
      "lat": 41.710463,
      "lng": 13.096092
    },
    "importance": 4
  },
  {
    "id": "ITM324",
    "name": "Anagnina",
    "type": "metro",
    "geo": {
      "lat": 41.8427897,
      "lng": 12.5860901
    },
    "importance": 4
  },
  {
    "id": "IT429",
    "name": "Ancona",
    "type": "rail",
    "geo": {
      "lat": 43.607447,
      "lng": 13.497719
    },
    "importance": 2
  },
  {
    "id": "IT1096",
    "name": "Ancona Stadio",
    "type": "rail",
    "geo": {
      "lat": 43.566416,
      "lng": 13.520808
    },
    "importance": 4
  },
  {
    "id": "IT3473",
    "name": "Ancona Torrette",
    "type": "rail",
    "geo": {
      "lat": 43.609936,
      "lng": 13.455777
    },
    "importance": 4
  },
  {
    "id": "IT3365",
    "name": "Anconetta",
    "type": "rail",
    "geo": {
      "lat": 45.565122,
      "lng": 11.567805
    },
    "importance": 4
  },
  {
    "id": "CH06047",
    "name": "Andelfingen",
    "type": "rail",
    "importance": 4,
    "geo": {
      "lat": 47.593766,
      "lng": 8.678002
    }
  },
  {
    "id": "CH05165",
    "name": "Andermatt",
    "type": "rail",
    "importance": 4,
    "geo": {
      "lat": 46.63689,
      "lng": 8.59328
    }
  },
  {
    "id": "IT4503",
    "name": "Andora",
    "type": "rail",
    "geo": {
      "lat": 43.960409,
      "lng": 8.13888
    },
    "importance": 4
  },
  {
    "id": "IT431",
    "name": "Angri",
    "type": "rail",
    "geo": {
      "lat": 40.746313,
      "lng": 14.575426
    },
    "importance": 4
  },
  {
    "id": "IT432",
    "name": "Anguillara",
    "type": "rail",
    "geo": {
      "lat": 42.067217,
      "lng": 12.293355
    },
    "importance": 4
  },
  {
    "id": "IT1310",
    "name": "Anna'",
    "type": "rail",
    "geo": {
      "lat": 37.925605,
      "lng": 15.748079
    },
    "importance": 4
  },
  {
    "id": "IT3466",
    "name": "Annone Veneto",
    "type": "rail",
    "geo": {
      "lat": 45.774745,
      "lng": 12.680345
    },
    "importance": 4
  },
  {
    "id": "IT434",
    "name": "Antignano",
    "type": "rail",
    "geo": {
      "lat": 43.495476,
      "lng": 10.329099
    },
    "importance": 4
  },
  {
    "id": "IT435",
    "name": "Antrodoco Borgo Velino",
    "type": "rail",
    "geo": {
      "lat": 42.409964,
      "lng": 13.070861
    },
    "importance": 4
  },
  {
    "id": "IT436",
    "name": "Antrodoco Centro",
    "type": "rail",
    "geo": {
      "lat": 42.415376,
      "lng": 13.076357
    },
    "importance": 4
  },
  {
    "id": "IT437",
    "name": "Anversa-Villalago-Scanno",
    "type": "rail",
    "geo": {
      "lat": 42.017352,
      "lng": 13.835857
    },
    "importance": 4
  },
  {
    "id": "IT438",
    "name": "Anzano Del Parco",
    "type": "rail",
    "geo": {
      "lat": 45.76505,
      "lng": 9.20268
    },
    "importance": 4
  },
  {
    "id": "IT439",
    "name": "Anzio",
    "type": "rail",
    "geo": {
      "lat": 41.452068,
      "lng": 12.62936
    },
    "importance": 4
  },
  {
    "id": "IT440",
    "name": "Anzio Colonia",
    "type": "rail",
    "geo": {
      "lat": 41.461801,
      "lng": 12.615936
    },
    "importance": 4
  },
  {
    "id": "IT441",
    "name": "Anzola Dell'Emilia",
    "type": "rail",
    "geo": {
      "lat": 44.550943,
      "lng": 11.196603
    },
    "importance": 4
  },
  {
    "id": "IT442",
    "name": "Aosta",
    "type": "rail",
    "geo": {
      "lat": 45.734316,
      "lng": 7.322313
    },
    "importance": 3
  },
  {
    "id": "IT3501",
    "name": "Aosta Istituto",
    "type": "rail",
    "importance": 4
  },
  {
    "id": "IT3502",
    "name": "Aosta Viale Europa",
    "type": "rail",
    "geo": {
      "lat": 45.732544,
      "lng": 7.295942
    },
    "importance": 4
  },
  {
    "id": "IT443",
    "name": "Apice S.Arcangelo Bonito",
    "type": "rail",
    "geo": {
      "lat": 41.140867,
      "lng": 14.918867
    },
    "importance": 4
  },
  {
    "id": "CH06286",
    "name": "Appenzell",
    "type": "rail",
    "importance": 4,
    "geo": {
      "lat": 47.328535,
      "lng": 9.40953
    }
  },
  {
    "id": "IT3428",
    "name": "Appiano",
    "type": "rail",
    "geo": {
      "lat": 41.911322,
      "lng": 12.438716
    },
    "importance": 4
  },
  {
    "id": "CH01094",
    "name": "Apples",
    "type": "rail",
    "importance": 4,
    "geo": {
      "lat": 46.55088,
      "lng": 6.42358
    }
  },
  {
    "id": "IT444",
    "name": "Apricena",
    "type": "rail",
    "geo": {
      "lat": 41.779016,
      "lng": 15.445426
    },
    "importance": 4
  },
  {
    "id": "IT445",
    "name": "Aprilia",
    "type": "rail",
    "geo": {
      "lat": 41.59217,
      "lng": 12.6393
    },
    "importance": 4
  },
  {
    "id": "IT448",
    "name": "Aragona Caldare",
    "type": "rail",
    "geo": {
      "lat": 37.381194,
      "lng": 13.636886
    },
    "importance": 4
  },
  {
    "id": "ITM79",
    "name": "Aranceto",
    "type": "metro",
    "geo": {
      "lat": 38.8391924,
      "lng": 16.611441
    },
    "importance": 4
  },
  {
    "id": "IT449",
    "name": "Arbia",
    "type": "rail",
    "geo": {
      "lat": 43.294363,
      "lng": 11.406229
    },
    "importance": 4
  },
  {
    "id": "CH06308",
    "name": "Arbon",
    "type": "rail",
    "importance": 4,
    "geo": {
      "lat": 47.510588,
      "lng": 9.433359
    }
  },
  {
    "id": "CH16270",
    "name": "Arbon Seemoosriet",
    "type": "rail",
    "importance": 4,
    "geo": {
      "lat": 47.521195,
      "lng": 9.42502
    }
  },
  {
    "id": "IT2110",
    "name": "Arbostella",
    "type": "rail",
    "geo": {
      "lat": 40.651695,
      "lng": 14.813146
    },
    "importance": 4
  },
  {
    "id": "IT450",
    "name": "Arce",
    "type": "rail",
    "geo": {
      "lat": 41.583305,
      "lng": 13.571856
    },
    "importance": 4
  },
  {
    "id": "IT3594",
    "name": "Arcene",
    "type": "rail",
    "geo": {
      "lat": 45.57445,
      "lng": 9.60543
    },
    "importance": 4
  },
  {
    "id": "IT451",
    "name": "Arcisate",
    "type": "rail",
    "geo": {
      "lat": 45.85857,
      "lng": 8.86292
    },
    "importance": 4
  },
  {
    "id": "ITM316",
    "name": "Arco di Travertino",
    "type": "metro",
    "geo": {
      "lat": 41.8660784,
      "lng": 12.5358014
    },
    "importance": 4
  },
  {
    "id": "ITM288",
    "name": "Arco Mirelli",
    "type": "metro",
    "geo": {
      "lat": 40.8325441,
      "lng": 14.2266946
    },
    "importance": 4
  },
  {
    "id": "IT452",
    "name": "Arcola",
    "type": "rail",
    "geo": {
      "lat": 44.118652,
      "lng": 9.91465
    },
    "importance": 4
  },
  {
    "id": "IT453",
    "name": "Arcore",
    "type": "rail",
    "geo": {
      "lat": 45.623773,
      "lng": 9.322924
    },
    "importance": 4
  },
  {
    "id": "IT455",
    "name": "Ardenno Masino",
    "type": "rail",
    "geo": {
      "lat": 46.16159,
      "lng": 9.65066
    },
    "importance": 4
  },
  {
    "id": "CH09266",
    "name": "Ardez",
    "type": "rail",
    "importance": 4,
    "geo": {
      "lat": 46.773557,
      "lng": 10.200967
    }
  },
  {
    "id": "CH01505",
    "name": "Ardon",
    "type": "rail",
    "importance": 4,
    "geo": {
      "lat": 46.208594,
      "lng": 7.270947
    }
  },
  {
    "id": "IT10",
    "name": "Ardore",
    "type": "rail",
    "geo": {
      "lat": 38.17577,
      "lng": 16.207224
    },
    "importance": 4
  },
  {
    "id": "IT2115",
    "name": "Arechi",
    "type": "rail",
    "geo": {
      "lat": 40.648177,
      "lng": 14.824859
    },
    "importance": 4
  },
  {
    "id": "IT457",
    "name": "Arena Po",
    "type": "rail",
    "geo": {
      "lat": 45.082171,
      "lng": 9.360318
    },
    "importance": 4
  },
  {
    "id": "IT198",
    "name": "Arenzano",
    "type": "rail",
    "geo": {
      "lat": 44.403089,
      "lng": 8.678532
    },
    "importance": 4
  },
  {
    "id": "CH94231",
    "name": "Areuse Les Isles Littorail",
    "type": "rail",
    "importance": 4,
    "geo": {
      "lat": 46.95422,
      "lng": 6.84858
    }
  },
  {
    "id": "CH95245",
    "name": "Areuse Littorail",
    "type": "rail",
    "importance": 4,
    "geo": {
      "lat": 46.954495,
      "lng": 6.853057
    }
  },
  {
    "id": "IT458",
    "name": "Arezzo",
    "type": "rail",
    "geo": {
      "lat": 43.461174,
      "lng": 11.875681
    },
    "importance": 3
  },
  {
    "id": "IT459",
    "name": "Argenta",
    "type": "rail",
    "geo": {
      "lat": 44.61681,
      "lng": 11.84127
    },
    "importance": 4
  },
  {
    "id": "ITM254",
    "name": "Argonne",
    "type": "metro",
    "geo": {
      "lat": 45.4680992,
      "lng": 9.2319145
    },
    "importance": 4
  },
  {
    "id": "IT460",
    "name": "Ariano Irpino",
    "type": "rail",
    "geo": {
      "lat": 41.181907,
      "lng": 15.117642
    },
    "importance": 4
  },
  {
    "id": "CH06211",
    "name": "Arnegg",
    "type": "rail",
    "importance": 4,
    "geo": {
      "lat": 47.442002,
      "lng": 9.252025
    }
  },
  {
    "id": "CH01107",
    "name": "Arnex",
    "type": "rail",
    "importance": 4,
    "geo": {
      "lat": 46.698078,
      "lng": 6.518907
    }
  },
  {
    "id": "IT461",
    "name": "Arona",
    "type": "rail",
    "geo": {
      "lat": 45.755399,
      "lng": 8.559082
    },
    "importance": 4
  },
  {
    "id": "CH09157",
    "name": "Arosa",
    "type": "rail",
    "importance": 4,
    "geo": {
      "lat": 46.783924,
      "lng": 9.679455
    }
  },
  {
    "id": "IT462",
    "name": "Arpino",
    "type": "rail",
    "geo": {
      "lat": 41.647896,
      "lng": 13.599597
    },
    "importance": 4
  },
  {
    "id": "IT463",
    "name": "Arqua'",
    "type": "rail",
    "geo": {
      "lat": 45.006494,
      "lng": 11.748422
    },
    "importance": 4
  },
  {
    "id": "IT199",
    "name": "Arquata Scrivia",
    "type": "rail",
    "geo": {
      "lat": 44.692234,
      "lng": 8.885006
    },
    "importance": 4
  },
  {
    "id": "IT464",
    "name": "Arsoli",
    "type": "rail",
    "geo": {
      "lat": 42.045868,
      "lng": 13.013312
    },
    "importance": 4
  },
  {
    "id": "IT465",
    "name": "Artegna",
    "type": "rail",
    "geo": {
      "lat": 46.231321,
      "lng": 13.162441
    },
    "importance": 4
  },
  {
    "id": "CH05004",
    "name": "Arth-Goldau",
    "type": "rail",
    "importance": 4,
    "geo": {
      "lat": 47.049045,
      "lng": 8.549446
    }
  },
  {
    "id": "CH01494",
    "name": "Arveyes",
    "type": "rail",
    "importance": 4,
    "geo": {
      "lat": 46.29125,
      "lng": 7.06269
    }
  },
  {
    "id": "IT466",
    "name": "Arvier",
    "type": "rail",
    "importance": 4
  },
  {
    "id": "CH01063",
    "name": "Arzier",
    "type": "rail",
    "importance": 4,
    "geo": {
      "lat": 46.45864,
      "lng": 6.21165
    }
  },
  {
    "id": "IT11",
    "name": "Ascea",
    "type": "rail",
    "geo": {
      "lat": 40.141023,
      "lng": 15.172334
    },
    "importance": 4
  },
  {
    "id": "IT467",
    "name": "Asciano",
    "type": "rail",
    "geo": {
      "lat": 43.235325,
      "lng": 11.579148
    },
    "importance": 4
  },
  {
    "id": "IT468",
    "name": "Asciano Monte Oliveto Maggiore",
    "type": "rail",
    "geo": {
      "lat": 43.231731,
      "lng": 11.563485
    },
    "importance": 4
  },
  {
    "id": "IT469",
    "name": "Ascoli Piceno",
    "type": "rail",
    "geo": {
      "lat": 42.855352,
      "lng": 13.587965
    },
    "importance": 4
  },
  {
    "id": "IT470",
    "name": "Ascoli Satriano",
    "type": "rail",
    "geo": {
      "lat": 41.220534,
      "lng": 15.548542
    },
    "importance": 4
  },
  {
    "id": "IT472",
    "name": "Asola",
    "type": "rail",
    "geo": {
      "lat": 45.220492,
      "lng": 10.402497
    },
    "importance": 4
  },
  {
    "id": "ITM48",
    "name": "Assago Milanofiori Forum",
    "type": "metro",
    "geo": {
      "lat": 45.4018117,
      "lng": 9.1455762
    },
    "importance": 4
  },
  {
    "id": "ITM47",
    "name": "Assago Milanofiori Nord",
    "type": "metro",
    "geo": {
      "lat": 45.4094526,
      "lng": 9.1500362
    },
    "importance": 4
  },
  {
    "id": "IT473",
    "name": "Assemini",
    "type": "rail",
    "geo": {
      "lat": 39.287733,
      "lng": 8.998091
    },
    "importance": 4
  },
  {
    "id": "IT3052",
    "name": "Assemini Carmine",
    "type": "rail",
    "geo": {
      "lat": 39.281795,
      "lng": 9.013726
    },
    "importance": 4
  },
  {
    "id": "IT3051",
    "name": "Assemini S.Lucia",
    "type": "rail",
    "geo": {
      "lat": 39.290977,
      "lng": 8.989268
    },
    "importance": 4
  },
  {
    "id": "CH01172",
    "name": "Assens",
    "type": "rail",
    "importance": 4,
    "geo": {
      "lat": 46.61315,
      "lng": 6.62053
    }
  },
  {
    "id": "IT474",
    "name": "Assisi",
    "type": "rail",
    "geo": {
      "lat": 43.059072,
      "lng": 12.585346
    },
    "importance": 3
  },
  {
    "id": "IT475",
    "name": "Asti",
    "type": "rail",
    "geo": {
      "lat": 44.895102,
      "lng": 8.208016
    },
    "importance": 3
  },
  {
    "id": "IT476",
    "name": "Attigliano-Bomarzo",
    "type": "rail",
    "geo": {
      "lat": 42.517967,
      "lng": 12.294663
    },
    "importance": 4
  },
  {
    "id": "CH00286",
    "name": "Attiswil",
    "type": "rail",
    "importance": 4,
    "geo": {
      "lat": 47.2464,
      "lng": 7.61388
    }
  },
  {
    "id": "CH06316",
    "name": "Au SG",
    "type": "rail",
    "importance": 4,
    "geo": {
      "lat": 47.436116,
      "lng": 9.641259
    }
  },
  {
    "id": "CH03205",
    "name": "Au ZH",
    "type": "rail",
    "importance": 4,
    "geo": {
      "lat": 47.246818,
      "lng": 8.643726
    }
  },
  {
    "id": "IT480",
    "name": "Augusta",
    "type": "rail",
    "importance": 4
  },
  {
    "id": "ITM44",
    "name": "Augusto",
    "type": "metro",
    "geo": {
      "lat": 40.8261854,
      "lng": 14.1983167
    },
    "importance": 4
  },
  {
    "id": "IT3587",
    "name": "Aulla Lunigiana",
    "type": "rail",
    "geo": {
      "lat": 44.218808,
      "lng": 9.976893
    },
    "importance": 4
  },
  {
    "id": "CH07472",
    "name": "Ausserberg",
    "type": "rail",
    "importance": 4,
    "geo": {
      "lat": 46.312348,
      "lng": 7.844167
    }
  },
  {
    "id": "CH04219",
    "name": "Auvernier",
    "type": "rail",
    "importance": 4,
    "geo": {
      "lat": 46.979642,
      "lng": 6.877708
    }
  },
  {
    "id": "CH04510",
    "name": "Auvernier Littorail",
    "type": "rail",
    "importance": 4,
    "geo": {
      "lat": 46.97424,
      "lng": 6.878892
    }
  },
  {
    "id": "IT483",
    "name": "Avellino",
    "type": "rail",
    "geo": {
      "lat": 40.921446,
      "lng": 14.820326
    },
    "importance": 3
  },
  {
    "id": "CH04126",
    "name": "Avenches",
    "type": "rail",
    "importance": 4,
    "geo": {
      "lat": 46.884602,
      "lng": 7.040925
    }
  },
  {
    "id": "IT484",
    "name": "Aversa",
    "type": "rail",
    "geo": {
      "lat": 40.973237,
      "lng": 14.218109
    },
    "importance": 4
  },
  {
    "id": "ITM150",
    "name": "Aversa Centro",
    "type": "metro",
    "geo": {
      "lat": 40.9740846,
      "lng": 14.2136486
    },
    "importance": 4
  },
  {
    "id": "ITM149",
    "name": "Aversa Ippodromo",
    "type": "metro",
    "geo": {
      "lat": 40.960825,
      "lng": 14.2107877
    },
    "importance": 4
  },
  {
    "id": "IT485",
    "name": "Avezzano",
    "type": "rail",
    "geo": {
      "lat": 42.039379,
      "lng": 13.42664
    },
    "importance": 4
  },
  {
    "id": "IT486",
    "name": "Aviano",
    "type": "rail",
    "geo": {
      "lat": 46.064218,
      "lng": 12.590688
    },
    "importance": 4
  },
  {
    "id": "IT487",
    "name": "Avigliana",
    "type": "rail",
    "geo": {
      "lat": 45.085225,
      "lng": 7.401137
    },
    "importance": 4
  },
  {
    "id": "IT488",
    "name": "Avigliano Lucania",
    "type": "rail",
    "geo": {
      "lat": 40.714549,
      "lng": 15.785431
    },
    "importance": 4
  },
  {
    "id": "IT489",
    "name": "Avio",
    "type": "rail",
    "geo": {
      "lat": 45.733752,
      "lng": 10.956027
    },
    "importance": 4
  },
  {
    "id": "IT490",
    "name": "Avise",
    "type": "rail",
    "importance": 4
  },
  {
    "id": "IT491",
    "name": "Avola",
    "type": "rail",
    "geo": {
      "lat": 36.907486,
      "lng": 15.12593
    },
    "importance": 4
  },
  {
    "id": "CH01632",
    "name": "Avry-Matran",
    "type": "rail",
    "importance": 4,
    "geo": {
      "lat": 46.78603,
      "lng": 7.080435
    }
  },
  {
    "id": "CH02206",
    "name": "Baar",
    "type": "rail",
    "importance": 4,
    "geo": {
      "lat": 47.195364,
      "lng": 8.523272
    }
  },
  {
    "id": "CH15993",
    "name": "Baar Lindenpark",
    "type": "rail",
    "importance": 4,
    "geo": {
      "lat": 47.183137,
      "lng": 8.517058
    }
  },
  {
    "id": "CH15992",
    "name": "Baar Neufeld",
    "type": "rail",
    "importance": 4,
    "geo": {
      "lat": 47.188493,
      "lng": 8.517781
    }
  },
  {
    "id": "CH03208",
    "name": "Bäch SZ",
    "type": "rail",
    "importance": 4,
    "geo": {
      "lat": 47.200982,
      "lng": 8.727174
    }
  },
  {
    "id": "CH09004",
    "name": "Bad Ragaz",
    "type": "rail",
    "importance": 4,
    "geo": {
      "lat": 47.010309,
      "lng": 9.505225
    }
  },
  {
    "id": "CH03409",
    "name": "Bad Zurzach",
    "type": "rail",
    "importance": 4,
    "geo": {
      "lat": 47.588313,
      "lng": 8.295588
    }
  },
  {
    "id": "CH03504",
    "name": "Baden",
    "type": "rail",
    "importance": 3,
    "geo": {
      "lat": 47.476424,
      "lng": 8.307709
    }
  },
  {
    "id": "IT564",
    "name": "Badesse",
    "type": "rail",
    "geo": {
      "lat": 43.385605,
      "lng": 11.272982
    },
    "importance": 4
  },
  {
    "id": "IT565",
    "name": "Badia Polesine",
    "type": "rail",
    "geo": {
      "lat": 45.094411,
      "lng": 11.484732
    },
    "importance": 4
  },
  {
    "id": "IT12",
    "name": "Badolato",
    "type": "rail",
    "geo": {
      "lat": 38.572233,
      "lng": 16.567582
    },
    "importance": 4
  },
  {
    "id": "IT566",
    "name": "Bagheria",
    "type": "rail",
    "geo": {
      "lat": 38.089727,
      "lng": 13.507384
    },
    "importance": 4
  },
  {
    "id": "IT567",
    "name": "Bagnacavallo",
    "type": "rail",
    "geo": {
      "lat": 44.41208,
      "lng": 11.96941
    },
    "importance": 4
  },
  {
    "id": "IT13",
    "name": "Bagnara",
    "type": "rail",
    "geo": {
      "lat": 38.282695,
      "lng": 15.800327
    },
    "importance": 4
  },
  {
    "id": "IT568",
    "name": "Bagnaria Arsa",
    "type": "rail",
    "importance": 4
  },
  {
    "id": "IT569",
    "name": "Bagnasco",
    "type": "rail",
    "importance": 4
  },
  {
    "id": "IT570",
    "name": "Bagni Di Lucca",
    "type": "rail",
    "geo": {
      "lat": 44.003449,
      "lng": 10.551634
    },
    "importance": 4
  },
  {
    "id": "IT572",
    "name": "Bagni Di Tivoli",
    "type": "rail",
    "geo": {
      "lat": 41.949727,
      "lng": 12.722241
    },
    "importance": 4
  },
  {
    "id": "IT573",
    "name": "Bagnoli Agnano Terme",
    "type": "rail",
    "geo": {
      "lat": 40.819357,
      "lng": 14.166708
    },
    "importance": 4
  },
  {
    "id": "IT576",
    "name": "Bagnolo Mella",
    "type": "rail",
    "geo": {
      "lat": 45.428391,
      "lng": 10.183755
    },
    "importance": 4
  },
  {
    "id": "IT577",
    "name": "Baiano Di Spoleto",
    "type": "rail",
    "geo": {
      "lat": 42.726158,
      "lng": 12.663832
    },
    "importance": 4
  },
  {
    "id": "IT5043",
    "name": "Balangero",
    "type": "rail",
    "geo": {
      "lat": 45.265633,
      "lng": 7.519423
    },
    "importance": 4
  },
  {
    "id": "IT5439",
    "name": "Balanzano",
    "type": "rail",
    "geo": {
      "lat": 43.612344,
      "lng": 11.864009
    },
    "importance": 4
  },
  {
    "id": "CH02025",
    "name": "Baldegg",
    "type": "rail",
    "importance": 4,
    "geo": {
      "lat": 47.185689,
      "lng": 8.280232
    }
  },
  {
    "id": "CH16353",
    "name": "Baldegg Kloster",
    "type": "rail",
    "importance": 4,
    "geo": {
      "lat": 47.180616,
      "lng": 8.280598
    }
  },
  {
    "id": "IT578",
    "name": "Baldichieri-Tigliole",
    "type": "rail",
    "geo": {
      "lat": 44.899299,
      "lng": 8.091182
    },
    "importance": 4
  },
  {
    "id": "ITM317",
    "name": "Baldo degli Ubaldi",
    "type": "metro",
    "geo": {
      "lat": 41.8990319,
      "lng": 12.4335844
    },
    "importance": 4
  },
  {
    "id": "CH05306",
    "name": "Balerna",
    "type": "rail",
    "importance": 4,
    "geo": {
      "lat": 45.846745,
      "lng": 9.005036
    }
  },
  {
    "id": "IT579",
    "name": "Balestrate",
    "type": "rail",
    "geo": {
      "lat": 38.05313,
      "lng": 13.007384
    },
    "importance": 4
  },
  {
    "id": "CH01095",
    "name": "Ballens",
    "type": "rail",
    "importance": 4,
    "geo": {
      "lat": 46.55226,
      "lng": 6.37446
    }
  },
  {
    "id": "CH01085",
    "name": "Ballens-Froideville",
    "type": "rail",
    "importance": 4,
    "geo": {
      "lat": 46.54966,
      "lng": 6.39023
    }
  },
  {
    "id": "CH02023",
    "name": "Ballwil",
    "type": "rail",
    "importance": 4,
    "geo": {
      "lat": 47.153768,
      "lng": 8.316899
    }
  },
  {
    "id": "IT580",
    "name": "Balsorano",
    "type": "rail",
    "geo": {
      "lat": 41.809517,
      "lng": 13.55675
    },
    "importance": 4
  },
  {
    "id": "CH00294",
    "name": "Balsthal",
    "type": "rail",
    "importance": 4,
    "geo": {
      "lat": 47.313193,
      "lng": 7.694669
    }
  },
  {
    "id": "IT3348",
    "name": "Balvano Ricigliano",
    "type": "rail",
    "geo": {
      "lat": 40.649965,
      "lng": 15.495441
    },
    "importance": 4
  },
  {
    "id": "IT581",
    "name": "Balzola",
    "type": "rail",
    "geo": {
      "lat": 45.174117,
      "lng": 8.400747
    },
    "importance": 4
  },
  {
    "id": "ITM221",
    "name": "Bande Nere",
    "type": "metro",
    "geo": {
      "lat": 45.461524,
      "lng": 9.1364657
    },
    "importance": 4
  },
  {
    "id": "IT583",
    "name": "Bandito",
    "type": "rail",
    "geo": {
      "lat": 44.722041,
      "lng": 7.819398
    },
    "importance": 4
  },
  {
    "id": "CH08155",
    "name": "Bannwil",
    "type": "rail",
    "importance": 4,
    "geo": {
      "lat": 47.24438,
      "lng": 7.74036
    }
  },
  {
    "id": "IT584",
    "name": "Baragiano-Ruoti",
    "type": "rail",
    "geo": {
      "lat": 40.694148,
      "lng": 15.570943
    },
    "importance": 4
  },
  {
    "id": "IT585",
    "name": "Baranello",
    "type": "rail",
    "geo": {
      "lat": 41.517818,
      "lng": 14.596604
    },
    "importance": 4
  },
  {
    "id": "ITM308",
    "name": "Barberini",
    "type": "metro",
    "geo": {
      "lat": 41.9038098,
      "lng": 12.4886166
    },
    "importance": 4
  },
  {
    "id": "IT587",
    "name": "Barberino Di Val D'Elsa",
    "type": "rail",
    "geo": {
      "lat": 43.499343,
      "lng": 11.111233
    },
    "importance": 4
  },
  {
    "id": "IT588",
    "name": "Barbianello",
    "type": "rail",
    "geo": {
      "lat": 45.07231,
      "lng": 9.20552
    },
    "importance": 4
  },
  {
    "id": "IT589",
    "name": "Barbiano",
    "type": "rail",
    "geo": {
      "lat": 44.3872,
      "lng": 11.87809
    },
    "importance": 4
  },
  {
    "id": "IT591",
    "name": "Barcellona-Castroreale",
    "type": "rail",
    "geo": {
      "lat": 38.153786,
      "lng": 15.199627
    },
    "importance": 4
  },
  {
    "id": "IT593",
    "name": "Bardonecchia",
    "type": "rail",
    "geo": {
      "lat": 45.07636,
      "lng": 6.709861
    },
    "importance": 4
  },
  {
    "id": "CH03132",
    "name": "Bäretswil",
    "type": "rail",
    "importance": 4,
    "geo": {
      "lat": 47.337319,
      "lng": 8.852175
    }
  },
  {
    "id": "IT594",
    "name": "Barga Gallicano",
    "type": "rail",
    "geo": {
      "lat": 44.068128,
      "lng": 10.452198
    },
    "importance": 4
  },
  {
    "id": "CH04403",
    "name": "Bargen BE",
    "type": "rail",
    "importance": 4,
    "geo": {
      "lat": 47.040162,
      "lng": 7.26118
    }
  },
  {
    "id": "IT595",
    "name": "Bari Centrale",
    "type": "rail",
    "geo": {
      "lat": 41.117974,
      "lng": 16.870113
    },
    "importance": 2
  },
  {
    "id": "IT3234",
    "name": "Bari Loseto",
    "type": "rail",
    "geo": {
      "lat": 41.04381,
      "lng": 16.84723
    },
    "importance": 4
  },
  {
    "id": "IT555",
    "name": "Bari Palese Macchie",
    "type": "rail",
    "geo": {
      "lat": 41.149238,
      "lng": 16.780286
    },
    "importance": 4
  },
  {
    "id": "IT557",
    "name": "Bari Parco Sud",
    "type": "rail",
    "geo": {
      "lat": 41.115154,
      "lng": 16.898035
    },
    "importance": 4
  },
  {
    "id": "IT3233",
    "name": "Bari S.Rita",
    "type": "rail",
    "geo": {
      "lat": 41.07307,
      "lng": 16.85142
    },
    "importance": 4
  },
  {
    "id": "IT560",
    "name": "Bari S.Spirito",
    "type": "rail",
    "geo": {
      "lat": 41.159807,
      "lng": 16.746394
    },
    "importance": 4
  },
  {
    "id": "IT562",
    "name": "Bari Torre A Mare",
    "type": "rail",
    "geo": {
      "lat": 41.082756,
      "lng": 16.994611
    },
    "importance": 4
  },
  {
    "id": "IT2699",
    "name": "Bari Torre Quetta",
    "type": "rail",
    "geo": {
      "lat": 41.111582,
      "lng": 16.915807
    },
    "importance": 4
  },
  {
    "id": "IT2468",
    "name": "Bari Villaggio Del Lavoratore",
    "type": "rail",
    "geo": {
      "lat": 41.104217,
      "lng": 16.822682
    },
    "importance": 4
  },
  {
    "id": "IT563",
    "name": "Bari Zona Industriale",
    "type": "rail",
    "geo": {
      "lat": 41.128027,
      "lng": 16.82658
    },
    "importance": 4
  },
  {
    "id": "IT596",
    "name": "Baricetta",
    "type": "rail",
    "geo": {
      "lat": 45.060818,
      "lng": 11.995351
    },
    "importance": 4
  },
  {
    "id": "IT597",
    "name": "Barile",
    "type": "rail",
    "geo": {
      "lat": 40.943139,
      "lng": 15.671126
    },
    "importance": 4
  },
  {
    "id": "IT598",
    "name": "Barletta",
    "type": "rail",
    "geo": {
      "lat": 41.315406,
      "lng": 16.278605
    },
    "importance": 3
  },
  {
    "id": "IT599",
    "name": "Baronissi",
    "type": "rail",
    "geo": {
      "lat": 40.74586,
      "lng": 14.772484
    },
    "importance": 4
  },
  {
    "id": "CH00090",
    "name": "Basel Bad Bf",
    "type": "rail",
    "importance": 4,
    "geo": {
      "lat": 47.567308,
      "lng": 7.60692
    }
  },
  {
    "id": "CH00136",
    "name": "Basel Dreispitz",
    "type": "rail",
    "importance": 4,
    "geo": {
      "lat": 47.537436,
      "lng": 7.609596
    }
  },
  {
    "id": "CH00010",
    "name": "Basel SBB",
    "type": "rail",
    "importance": 2,
    "geo": {
      "lat": 47.547412,
      "lng": 7.589563
    }
  },
  {
    "id": "CH00038",
    "name": "Basel St. Jakob",
    "type": "rail",
    "importance": 4,
    "geo": {
      "lat": 47.542613,
      "lng": 7.619532
    }
  },
  {
    "id": "CH00016",
    "name": "Basel St. Johann",
    "type": "rail",
    "importance": 4,
    "geo": {
      "lat": 47.570306,
      "lng": 7.572529
    }
  },
  {
    "id": "IT601",
    "name": "Basiliano",
    "type": "rail",
    "geo": {
      "lat": 46.012804,
      "lng": 13.109132
    },
    "importance": 4
  },
  {
    "id": "IT602",
    "name": "Bassano Del Grappa",
    "type": "rail",
    "geo": {
      "lat": 45.766654,
      "lng": 11.741268
    },
    "importance": 3
  },
  {
    "id": "IT604",
    "name": "Bassano Romano",
    "type": "rail",
    "importance": 4
  },
  {
    "id": "CH00122",
    "name": "Bassecourt",
    "type": "rail",
    "importance": 4,
    "geo": {
      "lat": 47.336687,
      "lng": 7.246846
    }
  },
  {
    "id": "CH03307",
    "name": "Bassersdorf",
    "type": "rail",
    "importance": 4,
    "geo": {
      "lat": 47.438571,
      "lng": 8.626221
    }
  },
  {
    "id": "CH01064",
    "name": "Bassins",
    "type": "rail",
    "importance": 4,
    "geo": {
      "lat": 46.46057,
      "lng": 6.22231
    }
  },
  {
    "id": "IT605",
    "name": "Bastia",
    "type": "rail",
    "geo": {
      "lat": 43.071193,
      "lng": 12.547746
    },
    "importance": 4
  },
  {
    "id": "IT608",
    "name": "Battaglia Terme",
    "type": "rail",
    "geo": {
      "lat": 45.29143,
      "lng": 11.77839
    },
    "importance": 4
  },
  {
    "id": "CH08064",
    "name": "Bätterkinden",
    "type": "rail",
    "importance": 4,
    "geo": {
      "lat": 47.13002,
      "lng": 7.5344
    }
  },
  {
    "id": "IT14",
    "name": "Battipaglia",
    "type": "rail",
    "geo": {
      "lat": 40.605619,
      "lng": 14.983147
    },
    "importance": 3
  },
  {
    "id": "ITM326",
    "name": "Battistini",
    "type": "metro",
    "geo": {
      "lat": 41.90612,
      "lng": 12.4151835
    },
    "importance": 4
  },
  {
    "id": "IT5420",
    "name": "Baucca-Garavelle",
    "type": "rail",
    "importance": 4
  },
  {
    "id": "CH04295",
    "name": "Baulmes",
    "type": "rail",
    "importance": 4,
    "geo": {
      "lat": 46.788749,
      "lng": 6.524282
    }
  },
  {
    "id": "CH03134",
    "name": "Bauma",
    "type": "rail",
    "importance": 4,
    "geo": {
      "lat": 47.368837,
      "lng": 8.878233
    }
  },
  {
    "id": "IT610",
    "name": "Baveno",
    "type": "rail",
    "geo": {
      "lat": 45.909154,
      "lng": 8.502079
    },
    "importance": 4
  },
  {
    "id": "CH01113",
    "name": "Bavois",
    "type": "rail",
    "importance": 4,
    "geo": {
      "lat": 46.68768,
      "lng": 6.559335
    }
  },
  {
    "id": "CH06205",
    "name": "Bazenheid",
    "type": "rail",
    "importance": 4,
    "geo": {
      "lat": 47.410127,
      "lng": 9.06906
    }
  },
  {
    "id": "IT611",
    "name": "Bazzana",
    "type": "rail",
    "geo": {
      "lat": 44.777041,
      "lng": 8.40151
    },
    "importance": 4
  },
  {
    "id": "IT3179",
    "name": "Bazzano",
    "type": "rail",
    "geo": {
      "lat": 44.508616,
      "lng": 11.078232
    },
    "importance": 4
  },
  {
    "id": "IT612",
    "name": "Beaulard",
    "type": "rail",
    "geo": {
      "lat": 45.046629,
      "lng": 6.759932
    },
    "importance": 4
  },
  {
    "id": "IT613",
    "name": "Beffi",
    "type": "rail",
    "geo": {
      "lat": 42.19692,
      "lng": 13.660761
    },
    "importance": 4
  },
  {
    "id": "CH00275",
    "name": "Bei den Weihern",
    "type": "rail",
    "importance": 4,
    "geo": {
      "lat": 47.22839,
      "lng": 7.56659
    }
  },
  {
    "id": "IT614",
    "name": "Beinette",
    "type": "rail",
    "importance": 4
  },
  {
    "id": "CH02034",
    "name": "Beinwil am See",
    "type": "rail",
    "importance": 4,
    "geo": {
      "lat": 47.26722,
      "lng": 8.202236
    }
  },
  {
    "id": "CH01170",
    "name": "Bel-Air LEB",
    "type": "rail",
    "importance": 4,
    "geo": {
      "lat": 46.57868,
      "lng": 6.60553
    }
  },
  {
    "id": "CH04139",
    "name": "Belfaux CFF",
    "type": "rail",
    "importance": 4,
    "geo": {
      "lat": 46.816925,
      "lng": 7.10623
    }
  },
  {
    "id": "CH04182",
    "name": "Belfaux-Village",
    "type": "rail",
    "importance": 4,
    "geo": {
      "lat": 46.8227,
      "lng": 7.11023
    }
  },
  {
    "id": "IT615",
    "name": "Belgioioso",
    "type": "rail",
    "geo": {
      "lat": 45.16441,
      "lng": 9.31688
    },
    "importance": 4
  },
  {
    "id": "IT616",
    "name": "Belgirate",
    "type": "rail",
    "geo": {
      "lat": 45.84334,
      "lng": 8.5711
    },
    "importance": 4
  },
  {
    "id": "IT617",
    "name": "Bella Muro",
    "type": "rail",
    "geo": {
      "lat": 40.700977,
      "lng": 15.542927
    },
    "importance": 4
  },
  {
    "id": "CH00205",
    "name": "Bellach",
    "type": "rail",
    "importance": 4,
    "geo": {
      "lat": 47.208879,
      "lng": 7.507825
    }
  },
  {
    "id": "IT618",
    "name": "Bellano Tartavalle Terme",
    "type": "rail",
    "importance": 4
  },
  {
    "id": "IT619",
    "name": "Bellante Ripattone",
    "type": "rail",
    "geo": {
      "lat": 42.705882,
      "lng": 13.837985
    },
    "importance": 4
  },
  {
    "id": "IT620",
    "name": "Bellaria",
    "type": "rail",
    "geo": {
      "lat": 44.150153,
      "lng": 12.461055
    },
    "importance": 4
  },
  {
    "id": "IT623",
    "name": "Bellinzago",
    "type": "rail",
    "geo": {
      "lat": 45.56668,
      "lng": 8.627663
    },
    "importance": 4
  },
  {
    "id": "CH05213",
    "name": "Bellinzona",
    "type": "rail",
    "importance": 3,
    "geo": {
      "lat": 46.195432,
      "lng": 9.029519
    }
  },
  {
    "id": "IT624",
    "name": "Bellisio Solfare",
    "type": "rail",
    "importance": 4
  },
  {
    "id": "IT625",
    "name": "Belluno",
    "type": "rail",
    "geo": {
      "lat": 46.141474,
      "lng": 12.209957
    },
    "importance": 3
  },
  {
    "id": "CH01390",
    "name": "Belmont-sur-Montreux",
    "type": "rail",
    "importance": 4,
    "geo": {
      "lat": 46.44204,
      "lng": 6.90612
    }
  },
  {
    "id": "IT15",
    "name": "Belmonte Calabro",
    "type": "rail",
    "importance": 4
  },
  {
    "id": "CH07076",
    "name": "Belp",
    "type": "rail",
    "importance": 4,
    "geo": {
      "lat": 46.888883,
      "lng": 7.498636
    }
  },
  {
    "id": "CH07092",
    "name": "Belp Steinbach",
    "type": "rail",
    "importance": 4,
    "geo": {
      "lat": 46.895165,
      "lng": 7.493092
    }
  },
  {
    "id": "IT16",
    "name": "Belvedere Marittimo",
    "type": "rail",
    "geo": {
      "lat": 39.616576,
      "lng": 15.853178
    },
    "importance": 4
  },
  {
    "id": "CH06367",
    "name": "Bendlehn",
    "type": "rail",
    "importance": 4,
    "geo": {
      "lat": 47.406957,
      "lng": 9.45051
    }
  },
  {
    "id": "IT626",
    "name": "Benevento",
    "type": "rail",
    "geo": {
      "lat": 41.14187,
      "lng": 14.769514
    },
    "importance": 3
  },
  {
    "id": "IT628",
    "name": "Benevento Arco Traiano",
    "type": "rail",
    "geo": {
      "lat": 41.134544,
      "lng": 14.77988
    },
    "importance": 4
  },
  {
    "id": "IT670",
    "name": "Benevento Porta Rufina",
    "type": "rail",
    "importance": 4
  },
  {
    "id": "ITM128",
    "name": "Bengasi",
    "type": "metro",
    "geo": {
      "lat": 45.0169671,
      "lng": 7.6613021
    },
    "importance": 4
  },
  {
    "id": "CH03118",
    "name": "Benken SG",
    "type": "rail",
    "importance": 4,
    "geo": {
      "lat": 47.204458,
      "lng": 9.008654
    }
  },
  {
    "id": "CH02216",
    "name": "Benzenschwil",
    "type": "rail",
    "importance": 4,
    "geo": {
      "lat": 47.246852,
      "lng": 8.365617
    }
  },
  {
    "id": "IT629",
    "name": "Berceto",
    "type": "rail",
    "geo": {
      "lat": 44.555912,
      "lng": 9.931761
    },
    "importance": 4
  },
  {
    "id": "CH01177",
    "name": "Bercher",
    "type": "rail",
    "importance": 4,
    "geo": {
      "lat": 46.69288,
      "lng": 6.70365
    }
  },
  {
    "id": "IT630",
    "name": "Berchidda",
    "type": "rail",
    "geo": {
      "lat": 40.772052,
      "lng": 9.181317
    },
    "importance": 4
  },
  {
    "id": "CH06194",
    "name": "Berg",
    "type": "rail",
    "importance": 4,
    "geo": {
      "lat": 47.582489,
      "lng": 9.173922
    }
  },
  {
    "id": "IT631",
    "name": "Bergamasco",
    "type": "rail",
    "importance": 4
  },
  {
    "id": "IT632",
    "name": "Bergamo",
    "type": "rail",
    "geo": {
      "lat": 45.69043,
      "lng": 9.675045
    },
    "importance": 2
  },
  {
    "id": "IT3183",
    "name": "Bergamo Ospedale",
    "type": "rail",
    "geo": {
      "lat": 45.688214,
      "lng": 9.638683
    },
    "importance": 4
  },
  {
    "id": "CH02270",
    "name": "Bergfrieden",
    "type": "rail",
    "importance": 4,
    "geo": {
      "lat": 47.397465,
      "lng": 8.398961
    }
  },
  {
    "id": "CH09197",
    "name": "Bergün/Bravuogn",
    "type": "rail",
    "importance": 4,
    "geo": {
      "lat": 46.631547,
      "lng": 9.746416
    }
  },
  {
    "id": "CH02276",
    "name": "Berikon-Widen",
    "type": "rail",
    "importance": 4,
    "geo": {
      "lat": 47.361924,
      "lng": 8.366371
    }
  },
  {
    "id": "CH03464",
    "name": "Beringen Bad Bf",
    "type": "rail",
    "importance": 4,
    "geo": {
      "lat": 47.69499,
      "lng": 8.574448
    }
  },
  {
    "id": "CH18243",
    "name": "Beringerfeld",
    "type": "rail",
    "importance": 4,
    "geo": {
      "lat": 47.695372,
      "lng": 8.592182
    }
  },
  {
    "id": "CH06135",
    "name": "Berlingen",
    "type": "rail",
    "importance": 4,
    "geo": {
      "lat": 47.673214,
      "lng": 9.022023
    }
  },
  {
    "id": "CH07000",
    "name": "Bern",
    "type": "rail",
    "importance": 2,
    "geo": {
      "lat": 46.948832,
      "lng": 7.439131
    }
  },
  {
    "id": "CH16154",
    "name": "Bern Brünnen Westside",
    "type": "rail",
    "importance": 4,
    "geo": {
      "lat": 46.944037,
      "lng": 7.375278
    }
  },
  {
    "id": "CH04489",
    "name": "Bern Bümpliz Nord",
    "type": "rail",
    "importance": 4,
    "geo": {
      "lat": 46.945829,
      "lng": 7.389756
    }
  },
  {
    "id": "CH04106",
    "name": "Bern Bümpliz Süd",
    "type": "rail",
    "importance": 4,
    "geo": {
      "lat": 46.937487,
      "lng": 7.395238
    }
  },
  {
    "id": "CH04108",
    "name": "Bern Europaplatz",
    "type": "rail",
    "importance": 4,
    "geo": {
      "lat": 46.94421,
      "lng": 7.406118
    }
  },
  {
    "id": "CH08051",
    "name": "Bern Felsenau",
    "type": "rail",
    "importance": 4,
    "geo": {
      "lat": 46.9685,
      "lng": 7.44425
    }
  },
  {
    "id": "CH04488",
    "name": "Bern Riedbach",
    "type": "rail",
    "importance": 4,
    "geo": {
      "lat": 46.941154,
      "lng": 7.33405
    }
  },
  {
    "id": "CH08052",
    "name": "Bern Tiefenau",
    "type": "rail",
    "importance": 4,
    "geo": {
      "lat": 46.97274,
      "lng": 7.4502
    }
  },
  {
    "id": "CH16161",
    "name": "Bern Wankdorf",
    "type": "rail",
    "importance": 4,
    "geo": {
      "lat": 46.967826,
      "lng": 7.465478
    }
  },
  {
    "id": "CH07079",
    "name": "Bern Weissenbühl",
    "type": "rail",
    "importance": 4,
    "geo": {
      "lat": 46.935779,
      "lng": 7.430019
    }
  },
  {
    "id": "IT633",
    "name": "Bernalda",
    "type": "rail",
    "geo": {
      "lat": 40.397748,
      "lng": 16.682347
    },
    "importance": 4
  },
  {
    "id": "CH19370",
    "name": "Bernina Diavolezza",
    "type": "rail",
    "importance": 4,
    "geo": {
      "lat": 46.441743,
      "lng": 9.982275
    }
  },
  {
    "id": "CH09373",
    "name": "Bernina Lagalb",
    "type": "rail",
    "importance": 4,
    "geo": {
      "lat": 46.436331,
      "lng": 9.991539
    }
  },
  {
    "id": "CH09354",
    "name": "Bernina Suot",
    "type": "rail",
    "importance": 4,
    "geo": {
      "lat": 46.445019,
      "lng": 9.969689
    }
  },
  {
    "id": "ITM16",
    "name": "Bernini",
    "type": "metro",
    "geo": {
      "lat": 45.0760134,
      "lng": 7.655793
    },
    "importance": 4
  },
  {
    "id": "IT634",
    "name": "Besana",
    "type": "rail",
    "geo": {
      "lat": 45.702742,
      "lng": 9.283038
    },
    "importance": 4
  },
  {
    "id": "IT635",
    "name": "Besnate",
    "type": "rail",
    "geo": {
      "lat": 45.695496,
      "lng": 8.761251
    },
    "importance": 4
  },
  {
    "id": "IT636",
    "name": "Besozzo",
    "type": "rail",
    "geo": {
      "lat": 45.842335,
      "lng": 8.663223
    },
    "importance": 4
  },
  {
    "id": "CH00203",
    "name": "Bettlach",
    "type": "rail",
    "importance": 4,
    "geo": {
      "lat": 47.194949,
      "lng": 7.428373
    }
  },
  {
    "id": "CH01675",
    "name": "Bettmeralp Talstation",
    "type": "rail",
    "importance": 4,
    "geo": {
      "lat": 46.371158,
      "lng": 8.07652
    }
  },
  {
    "id": "CH06182",
    "name": "Bettwiesen",
    "type": "rail",
    "importance": 4,
    "geo": {
      "lat": 47.498621,
      "lng": 9.02078
    }
  },
  {
    "id": "CH04206",
    "name": "Bevaix",
    "type": "rail",
    "importance": 4,
    "geo": {
      "lat": 46.929696,
      "lng": 6.81168
    }
  },
  {
    "id": "CH09250",
    "name": "Bever",
    "type": "rail",
    "importance": 4,
    "geo": {
      "lat": 46.549545,
      "lng": 9.888184
    }
  },
  {
    "id": "IT200",
    "name": "Bevera",
    "type": "rail",
    "geo": {
      "lat": 43.825249,
      "lng": 7.578995
    },
    "importance": 4
  },
  {
    "id": "CH01488",
    "name": "Bévieux",
    "type": "rail",
    "importance": 4,
    "geo": {
      "lat": 46.25899,
      "lng": 7.03088
    }
  },
  {
    "id": "IT638",
    "name": "Bevilacqua",
    "type": "rail",
    "geo": {
      "lat": 45.23031,
      "lng": 11.396674
    },
    "importance": 4
  },
  {
    "id": "CH01402",
    "name": "Bex",
    "type": "rail",
    "importance": 4,
    "geo": {
      "lat": 46.251465,
      "lng": 7.00067
    }
  },
  {
    "id": "CH30064",
    "name": "Bex Pont-Neuf",
    "type": "rail",
    "importance": 4,
    "geo": {
      "lat": 46.25052,
      "lng": 7.02082
    }
  },
  {
    "id": "CH01487",
    "name": "Bex-Place-du-Marché",
    "type": "rail",
    "importance": 4,
    "geo": {
      "lat": 46.25091,
      "lng": 7.01443
    }
  },
  {
    "id": "IT639",
    "name": "Biagioni Lagacci",
    "type": "rail",
    "geo": {
      "lat": 44.086352,
      "lng": 10.948269
    },
    "importance": 4
  },
  {
    "id": "IT17",
    "name": "Bianco",
    "type": "rail",
    "geo": {
      "lat": 38.08912,
      "lng": 16.153176
    },
    "importance": 4
  },
  {
    "id": "IT640",
    "name": "Bianze'",
    "type": "rail",
    "geo": {
      "lat": 45.309493,
      "lng": 8.115523
    },
    "importance": 4
  },
  {
    "id": "IT641",
    "name": "Bianzone",
    "type": "rail",
    "geo": {
      "lat": 46.179468,
      "lng": 10.112453
    },
    "importance": 4
  },
  {
    "id": "CH05209",
    "name": "Biasca",
    "type": "rail",
    "importance": 4,
    "geo": {
      "lat": 46.351984,
      "lng": 8.974179
    }
  },
  {
    "id": "IT642",
    "name": "Biassono-Lesmo Parco",
    "type": "rail",
    "geo": {
      "lat": 45.63221,
      "lng": 9.298298
    },
    "importance": 4
  },
  {
    "id": "CH17377",
    "name": "Bibenlos-Sonnenhof",
    "type": "rail",
    "importance": 4,
    "geo": {
      "lat": 47.353791,
      "lng": 8.350278
    }
  },
  {
    "id": "CH03284",
    "name": "Biberbrugg",
    "type": "rail",
    "importance": 4,
    "geo": {
      "lat": 47.156379,
      "lng": 8.722715
    }
  },
  {
    "id": "CH03290",
    "name": "Biberegg",
    "type": "rail",
    "importance": 4,
    "geo": {
      "lat": 47.09361,
      "lng": 8.669443
    }
  },
  {
    "id": "CH08089",
    "name": "Biberist Ost",
    "type": "rail",
    "importance": 4,
    "geo": {
      "lat": 47.180602,
      "lng": 7.566191
    }
  },
  {
    "id": "CH08068",
    "name": "Biberist RBS",
    "type": "rail",
    "importance": 4,
    "geo": {
      "lat": 47.18386,
      "lng": 7.555831
    }
  },
  {
    "id": "IT646",
    "name": "Bibiana",
    "type": "rail",
    "importance": 4
  },
  {
    "id": "IT647",
    "name": "Bicocca",
    "type": "rail",
    "geo": {
      "lat": 37.460622,
      "lng": 15.044376
    },
    "importance": 4
  },
  {
    "id": "ITM248",
    "name": "Bicocca",
    "type": "metro",
    "geo": {
      "lat": 45.5147332,
      "lng": 9.2053603
    },
    "importance": 4
  },
  {
    "id": "CH01668",
    "name": "Biel (Goms)",
    "type": "rail",
    "importance": 4,
    "geo": {
      "lat": 46.455057,
      "lng": 8.219429
    }
  },
  {
    "id": "CH04419",
    "name": "Biel Mett",
    "type": "rail",
    "importance": 4,
    "geo": {
      "lat": 47.144725,
      "lng": 7.272487
    }
  },
  {
    "id": "CH04300",
    "name": "Biel/Bienne",
    "type": "rail",
    "importance": 3,
    "geo": {
      "lat": 47.132898,
      "lng": 7.242911
    }
  },
  {
    "id": "CH18771",
    "name": "Biel/Bienne Bözingenfeld/Champ",
    "type": "rail",
    "importance": 4,
    "geo": {
      "lat": 47.158382,
      "lng": 7.294648
    }
  },
  {
    "id": "IT649",
    "name": "Biella S.Paolo",
    "type": "rail",
    "geo": {
      "lat": 45.557156,
      "lng": 8.067353
    },
    "importance": 3
  },
  {
    "id": "CH01096",
    "name": "Bière",
    "type": "rail",
    "importance": 4,
    "geo": {
      "lat": 46.53744,
      "lng": 6.33691
    }
  },
  {
    "id": "IT650",
    "name": "Biforco",
    "type": "rail",
    "geo": {
      "lat": 44.068442,
      "lng": 11.602383
    },
    "importance": 4
  },
  {
    "id": "CH08263",
    "name": "Bigenthal",
    "type": "rail",
    "importance": 4,
    "geo": {
      "lat": 46.965398,
      "lng": 7.623375
    }
  },
  {
    "id": "CH08261",
    "name": "Biglen",
    "type": "rail",
    "importance": 4,
    "geo": {
      "lat": 46.924617,
      "lng": 7.626703
    }
  },
  {
    "id": "ITM246",
    "name": "Bignami",
    "type": "metro",
    "geo": {
      "lat": 45.5267835,
      "lng": 9.2121828
    },
    "importance": 4
  },
  {
    "id": "CH03224",
    "name": "Bilten",
    "type": "rail",
    "importance": 4,
    "geo": {
      "lat": 47.152193,
      "lng": 9.029918
    }
  },
  {
    "id": "CH02191",
    "name": "Binzenhof",
    "type": "rail",
    "importance": 4,
    "geo": {
      "lat": 47.383212,
      "lng": 8.050586
    }
  },
  {
    "id": "CH05394",
    "name": "Bioggio",
    "type": "rail",
    "importance": 4,
    "geo": {
      "lat": 46.01211,
      "lng": 8.90889
    }
  },
  {
    "id": "CH30789",
    "name": "Bioggio Molinazzo",
    "type": "rail",
    "importance": 4,
    "geo": {
      "lat": 46.01236,
      "lng": 8.91401
    }
  },
  {
    "id": "CH02221",
    "name": "Birmensdorf ZH",
    "type": "rail",
    "importance": 4,
    "geo": {
      "lat": 47.357431,
      "lng": 8.437555
    }
  },
  {
    "id": "CH02247",
    "name": "Birr",
    "type": "rail",
    "importance": 4,
    "geo": {
      "lat": 47.435847,
      "lng": 8.217665
    }
  },
  {
    "id": "CH02033",
    "name": "Birrwil",
    "type": "rail",
    "importance": 4,
    "geo": {
      "lat": 47.287857,
      "lng": 8.199017
    }
  },
  {
    "id": "IT652",
    "name": "Bisceglie",
    "type": "rail",
    "geo": {
      "lat": 41.23553,
      "lng": 16.499563
    },
    "importance": 4
  },
  {
    "id": "ITM134",
    "name": "Bisceglie",
    "type": "metro",
    "geo": {
      "lat": 45.4553979,
      "lng": 9.1129252
    },
    "importance": 4
  },
  {
    "id": "CH06215",
    "name": "Bischofszell Nord",
    "type": "rail",
    "importance": 4,
    "geo": {
      "lat": 47.500415,
      "lng": 9.234035
    }
  },
  {
    "id": "CH06213",
    "name": "Bischofszell Stadt",
    "type": "rail",
    "importance": 4,
    "geo": {
      "lat": 47.492141,
      "lng": 9.241479
    }
  },
  {
    "id": "IT653",
    "name": "Bistagno",
    "type": "rail",
    "geo": {
      "lat": 44.659257,
      "lng": 8.372061
    },
    "importance": 4
  },
  {
    "id": "IT654",
    "name": "Bisuschio-Viggiu'",
    "type": "rail",
    "geo": {
      "lat": 45.870714,
      "lng": 8.887792
    },
    "importance": 4
  },
  {
    "id": "IT655",
    "name": "Bitetto Palo Del Colle",
    "type": "rail",
    "geo": {
      "lat": 41.045716,
      "lng": 16.743799
    },
    "importance": 4
  },
  {
    "id": "IT3235",
    "name": "Bitritto",
    "type": "rail",
    "geo": {
      "lat": 41.04381,
      "lng": 16.83277
    },
    "importance": 4
  },
  {
    "id": "CH01677",
    "name": "Bitsch",
    "type": "rail",
    "importance": 4,
    "geo": {
      "lat": 46.336057,
      "lng": 8.017224
    }
  },
  {
    "id": "IT520",
    "name": "Bivio D'Aurisina",
    "type": "rail",
    "geo": {
      "lat": 45.754069,
      "lng": 13.656148
    },
    "importance": 4
  },
  {
    "id": "CH07274",
    "name": "Blankenburg",
    "type": "rail",
    "importance": 4,
    "geo": {
      "lat": 46.5411,
      "lng": 7.38532
    }
  },
  {
    "id": "CH02174",
    "name": "Bleien Liebegg",
    "type": "rail",
    "importance": 4,
    "geo": {
      "lat": 47.343527,
      "lng": 8.113546
    }
  },
  {
    "id": "CH01669",
    "name": "Blitzingen",
    "type": "rail",
    "importance": 4,
    "geo": {
      "lat": 46.444665,
      "lng": 8.204967
    }
  },
  {
    "id": "CH01281",
    "name": "Blonay",
    "type": "rail",
    "importance": 4,
    "geo": {
      "lat": 46.46569,
      "lng": 6.89594
    }
  },
  {
    "id": "CH03113",
    "name": "Blumenau",
    "type": "rail",
    "importance": 4,
    "geo": {
      "lat": 47.223671,
      "lng": 8.842405
    }
  },
  {
    "id": "CH07278",
    "name": "Boden",
    "type": "rail",
    "importance": 4,
    "geo": {
      "lat": 46.47077,
      "lng": 7.43538
    }
  },
  {
    "id": "CH05207",
    "name": "Bodio TI",
    "type": "rail",
    "importance": 4,
    "geo": {
      "lat": 46.380255,
      "lng": 8.906568
    }
  },
  {
    "id": "IT213",
    "name": "Bogliasco",
    "type": "rail",
    "geo": {
      "lat": 44.379209,
      "lng": 9.066053
    },
    "importance": 4
  },
  {
    "id": "IT681",
    "name": "Boiano",
    "type": "rail",
    "geo": {
      "lat": 41.487789,
      "lng": 14.4744
    },
    "importance": 4
  },
  {
    "id": "CH30261",
    "name": "Bois-de-Chexbres",
    "type": "rail",
    "importance": 4,
    "geo": {
      "lat": 46.47328,
      "lng": 6.90153
    }
  },
  {
    "id": "CH04218",
    "name": "Bôle",
    "type": "rail",
    "importance": 4,
    "geo": {
      "lat": 46.969423,
      "lng": 6.838374
    }
  },
  {
    "id": "IT682",
    "name": "Bolgheri",
    "type": "rail",
    "geo": {
      "lat": 43.244664,
      "lng": 10.550549
    },
    "importance": 4
  },
  {
    "id": "ITM285",
    "name": "Bolivar",
    "type": "metro",
    "geo": {
      "lat": 45.455343,
      "lng": 9.1531255
    },
    "importance": 4
  },
  {
    "id": "CH07065",
    "name": "Boll-Utzigen",
    "type": "rail",
    "importance": 4,
    "geo": {
      "lat": 46.953021,
      "lng": 7.546773
    }
  },
  {
    "id": "CH00196",
    "name": "Bollement",
    "type": "rail",
    "importance": 4,
    "geo": {
      "lat": 47.296924,
      "lng": 7.123865
    }
  },
  {
    "id": "CH07068",
    "name": "Bolligen",
    "type": "rail",
    "importance": 4,
    "geo": {
      "lat": 46.96954,
      "lng": 7.49742
    }
  },
  {
    "id": "ITM10",
    "name": "Bologna",
    "type": "metro",
    "geo": {
      "lat": 41.9136627,
      "lng": 12.5208145
    },
    "importance": 4
  },
  {
    "id": "IT672",
    "name": "Bologna Borgo Panigale",
    "type": "rail",
    "geo": {
      "lat": 44.515007,
      "lng": 11.284735
    },
    "importance": 4
  },
  {
    "id": "IT942",
    "name": "Bologna C.Le/Av",
    "type": "rail",
    "geo": {
      "lat": 44.507175,
      "lng": 11.342867
    },
    "importance": 4
  },
  {
    "id": "IT683",
    "name": "Bologna Centrale",
    "type": "rail",
    "geo": {
      "lat": 44.505907,
      "lng": 11.343369
    },
    "importance": 1
  },
  {
    "id": "IT673",
    "name": "Bologna Corticella",
    "type": "rail",
    "geo": {
      "lat": 44.551962,
      "lng": 11.354009
    },
    "importance": 4
  },
  {
    "id": "IT1249",
    "name": "Bologna Fiere",
    "type": "rail",
    "geo": {
      "lat": 44.512632,
      "lng": 11.36894
    },
    "importance": 4
  },
  {
    "id": "IT1709",
    "name": "Bologna Mazzini",
    "type": "rail",
    "geo": {
      "lat": 44.482702,
      "lng": 11.376326
    },
    "importance": 4
  },
  {
    "id": "IT679",
    "name": "Bologna S.Ruffillo",
    "type": "rail",
    "geo": {
      "lat": 44.462731,
      "lng": 11.372813
    },
    "importance": 4
  },
  {
    "id": "IT2003",
    "name": "Bologna S.Vitale",
    "type": "rail",
    "geo": {
      "lat": 44.496331,
      "lng": 11.373234
    },
    "importance": 4
  },
  {
    "id": "ITM65",
    "name": "Bolognetta",
    "type": "metro",
    "geo": {
      "lat": 41.8651593,
      "lng": 12.6809329
    },
    "importance": 4
  },
  {
    "id": "CH07292",
    "name": "Boltigen",
    "type": "rail",
    "importance": 4,
    "geo": {
      "lat": 46.627368,
      "lng": 7.390074
    }
  },
  {
    "id": "IT685",
    "name": "Bolzano",
    "type": "rail",
    "geo": {
      "lat": 46.496657,
      "lng": 11.358361
    },
    "importance": 2
  },
  {
    "id": "IT1966",
    "name": "Bolzano Casanova",
    "type": "rail",
    "geo": {
      "lat": 46.480093,
      "lng": 11.315276
    },
    "importance": 4
  },
  {
    "id": "IT686",
    "name": "Bolzano Novarese",
    "type": "rail",
    "geo": {
      "lat": 45.759362,
      "lng": 8.440761
    },
    "importance": 4
  },
  {
    "id": "IT687",
    "name": "Bolzano Sud",
    "type": "rail",
    "geo": {
      "lat": 46.473613,
      "lng": 11.32623
    },
    "importance": 4
  },
  {
    "id": "CH09184",
    "name": "Bonaduz",
    "type": "rail",
    "importance": 4,
    "geo": {
      "lat": 46.810358,
      "lng": 9.397896
    }
  },
  {
    "id": "IT214",
    "name": "Bonassola",
    "type": "rail",
    "importance": 4
  },
  {
    "id": "CH00128",
    "name": "Boncourt",
    "type": "rail",
    "importance": 4,
    "geo": {
      "lat": 47.492632,
      "lng": 7.016552
    }
  },
  {
    "id": "IT689",
    "name": "Bonefro S.Croce",
    "type": "rail",
    "geo": {
      "lat": 41.710696,
      "lng": 14.860726
    },
    "importance": 4
  },
  {
    "id": "IT690",
    "name": "Bonferraro",
    "type": "rail",
    "geo": {
      "lat": 45.185637,
      "lng": 11.009251
    },
    "importance": 4
  },
  {
    "id": "CH00188",
    "name": "Bonfol",
    "type": "rail",
    "importance": 4,
    "geo": {
      "lat": 47.474425,
      "lng": 7.154884
    }
  },
  {
    "id": "CH02032",
    "name": "Boniswil",
    "type": "rail",
    "importance": 4,
    "geo": {
      "lat": 47.315039,
      "lng": 8.184561
    }
  },
  {
    "id": "ITM225",
    "name": "Bonola",
    "type": "metro",
    "geo": {
      "lat": 45.4970317,
      "lng": 9.1101295
    },
    "importance": 4
  },
  {
    "id": "IT691",
    "name": "Bonorva",
    "type": "rail",
    "geo": {
      "lat": 40.417767,
      "lng": 8.760714
    },
    "importance": 4
  },
  {
    "id": "CH02222",
    "name": "Bonstetten-Wettswil",
    "type": "rail",
    "importance": 4,
    "geo": {
      "lat": 47.325901,
      "lng": 8.468197
    }
  },
  {
    "id": "IT215",
    "name": "Bordighera",
    "type": "rail",
    "geo": {
      "lat": 43.778475,
      "lng": 7.663628
    },
    "importance": 4
  },
  {
    "id": "IT5035",
    "name": "Borgaro",
    "type": "rail",
    "geo": {
      "lat": 45.153217,
      "lng": 7.64886
    },
    "importance": 4
  },
  {
    "id": "ITM66",
    "name": "Borghesiana",
    "type": "metro",
    "geo": {
      "lat": 41.8646918,
      "lng": 12.6672618
    },
    "importance": 4
  },
  {
    "id": "IT693",
    "name": "Borghetto Parmense",
    "type": "rail",
    "importance": 4
  },
  {
    "id": "IT216",
    "name": "Borghetto S.Spirito",
    "type": "rail",
    "geo": {
      "lat": 44.109013,
      "lng": 8.242346
    },
    "importance": 4
  },
  {
    "id": "IT694",
    "name": "Borghetto Sull'Adige",
    "type": "rail",
    "geo": {
      "lat": 45.696826,
      "lng": 10.926933
    },
    "importance": 4
  },
  {
    "id": "IT217",
    "name": "Borgio Verezzi",
    "type": "rail",
    "geo": {
      "lat": 44.15773,
      "lng": 8.309083
    },
    "importance": 4
  },
  {
    "id": "IT695",
    "name": "Borgo",
    "type": "rail",
    "geo": {
      "lat": 40.8459,
      "lng": 14.7842
    },
    "importance": 4
  },
  {
    "id": "ITM141",
    "name": "Borgo",
    "type": "metro",
    "geo": {
      "lat": 37.5217643,
      "lng": 15.0846805
    },
    "importance": 4
  },
  {
    "id": "IT696",
    "name": "Borgo A Buggiano",
    "type": "rail",
    "geo": {
      "lat": 43.880717,
      "lng": 10.730091
    },
    "importance": 4
  },
  {
    "id": "IT697",
    "name": "Borgo A Mozzano",
    "type": "rail",
    "geo": {
      "lat": 43.977205,
      "lng": 10.54129
    },
    "importance": 4
  },
  {
    "id": "IT218",
    "name": "Borgo Fornari Per Voltaggio",
    "type": "rail",
    "geo": {
      "lat": 44.588956,
      "lng": 8.938048
    },
    "importance": 4
  },
  {
    "id": "IT698",
    "name": "Borgo Lavezzaro",
    "type": "rail",
    "geo": {
      "lat": 45.31876,
      "lng": 8.7032
    },
    "importance": 4
  },
  {
    "id": "IT699",
    "name": "Borgo Revel",
    "type": "rail",
    "geo": {
      "lat": 45.190041,
      "lng": 8.018396
    },
    "importance": 4
  },
  {
    "id": "IT700",
    "name": "Borgo S.Dalmazzo",
    "type": "rail",
    "geo": {
      "lat": 44.326373,
      "lng": 7.486102
    },
    "importance": 4
  },
  {
    "id": "IT701",
    "name": "Borgo S.Lorenzo",
    "type": "rail",
    "geo": {
      "lat": 43.959664,
      "lng": 11.38031
    },
    "importance": 4
  },
  {
    "id": "IT702",
    "name": "Borgo S.Lorenzo Rimorelli",
    "type": "rail",
    "geo": {
      "lat": 43.953367,
      "lng": 11.399752
    },
    "importance": 4
  },
  {
    "id": "IT703",
    "name": "Borgo S.Martino",
    "type": "rail",
    "geo": {
      "lat": 45.087084,
      "lng": 8.520668
    },
    "importance": 4
  },
  {
    "id": "IT704",
    "name": "Borgo Ticino",
    "type": "rail",
    "geo": {
      "lat": 45.691949,
      "lng": 8.602492
    },
    "importance": 4
  },
  {
    "id": "IT705",
    "name": "Borgo Val Di Taro",
    "type": "rail",
    "geo": {
      "lat": 44.486522,
      "lng": 9.781493
    },
    "importance": 4
  },
  {
    "id": "IT706",
    "name": "Borgo Valsugana Centro",
    "type": "rail",
    "geo": {
      "lat": 46.051456,
      "lng": 11.454164
    },
    "importance": 4
  },
  {
    "id": "IT3503",
    "name": "Borgo Valsugana Est",
    "type": "rail",
    "geo": {
      "lat": 46.052484,
      "lng": 11.46336
    },
    "importance": 4
  },
  {
    "id": "IT707",
    "name": "Borgo Vercelli",
    "type": "rail",
    "geo": {
      "lat": 45.359254,
      "lng": 8.461483
    },
    "importance": 4
  },
  {
    "id": "IT1547",
    "name": "Borgochiesanuova",
    "type": "rail",
    "geo": {
      "lat": 45.141689,
      "lng": 10.766297
    },
    "importance": 4
  },
  {
    "id": "IT709",
    "name": "Borgofranco",
    "type": "rail",
    "importance": 4
  },
  {
    "id": "IT710",
    "name": "Borgolombardo",
    "type": "rail",
    "geo": {
      "lat": 45.404507,
      "lng": 9.270467
    },
    "importance": 4
  },
  {
    "id": "IT711",
    "name": "Borgomanero",
    "type": "rail",
    "geo": {
      "lat": 45.700938,
      "lng": 8.467752
    },
    "importance": 4
  },
  {
    "id": "IT712",
    "name": "Borgone",
    "type": "rail",
    "geo": {
      "lat": 45.123381,
      "lng": 7.236078
    },
    "importance": 4
  },
  {
    "id": "IT713",
    "name": "Borgonuovo",
    "type": "rail",
    "geo": {
      "lat": 44.443243,
      "lng": 11.274975
    },
    "importance": 4
  },
  {
    "id": "IT714",
    "name": "Borgoratto",
    "type": "rail",
    "geo": {
      "lat": 44.836008,
      "lng": 8.538192
    },
    "importance": 4
  },
  {
    "id": "IT715",
    "name": "Borgosesia",
    "type": "rail",
    "importance": 4
  },
  {
    "id": "IT716",
    "name": "Borore",
    "type": "rail",
    "geo": {
      "lat": 40.218977,
      "lng": 8.809362
    },
    "importance": 4
  },
  {
    "id": "IT717",
    "name": "Boschi S.Anna",
    "type": "rail",
    "geo": {
      "lat": 45.217301,
      "lng": 11.362303
    },
    "importance": 4
  },
  {
    "id": "IT5023",
    "name": "Bosconero",
    "type": "rail",
    "geo": {
      "lat": 45.267514,
      "lng": 7.761964
    },
    "importance": 4
  },
  {
    "id": "CH04003",
    "name": "Bossière",
    "type": "rail",
    "importance": 4,
    "geo": {
      "lat": 46.509749,
      "lng": 6.699322
    }
  },
  {
    "id": "CH04060",
    "name": "Bossonnens",
    "type": "rail",
    "importance": 4,
    "geo": {
      "lat": 46.525704,
      "lng": 6.853242
    }
  },
  {
    "id": "CH02214",
    "name": "Boswil-Bünzen",
    "type": "rail",
    "importance": 4,
    "geo": {
      "lat": 47.305182,
      "lng": 8.315284
    }
  },
  {
    "id": "IT21",
    "name": "Botricello",
    "type": "rail",
    "geo": {
      "lat": 38.934089,
      "lng": 16.85748
    },
    "importance": 4
  },
  {
    "id": "IT5075",
    "name": "Bottenicco Zona Industriale",
    "type": "rail",
    "geo": {
      "lat": 46.090344,
      "lng": 13.390942
    },
    "importance": 4
  },
  {
    "id": "CH06127",
    "name": "Bottighofen",
    "type": "rail",
    "importance": 4,
    "geo": {
      "lat": 47.640707,
      "lng": 9.213104
    }
  },
  {
    "id": "CH04208",
    "name": "Boudry",
    "type": "rail",
    "importance": 4,
    "geo": {
      "lat": 46.959457,
      "lng": 6.835048
    }
  },
  {
    "id": "CH04511",
    "name": "Boudry Littorail",
    "type": "rail",
    "importance": 4,
    "geo": {
      "lat": 46.949485,
      "lng": 6.839148
    }
  },
  {
    "id": "CH30713",
    "name": "Boudry Tuilière",
    "type": "rail",
    "importance": 4,
    "geo": {
      "lat": 46.951465,
      "lng": 6.84283
    }
  },
  {
    "id": "CH01498",
    "name": "Bouquetins",
    "type": "rail",
    "importance": 4,
    "geo": {
      "lat": 46.3164,
      "lng": 7.07234
    }
  },
  {
    "id": "CH01426",
    "name": "Bouveret",
    "type": "rail",
    "importance": 4,
    "geo": {
      "lat": 46.385817,
      "lng": 6.853244
    }
  },
  {
    "id": "IT22",
    "name": "Bova Marina",
    "type": "rail",
    "geo": {
      "lat": 37.930383,
      "lng": 15.923976
    },
    "importance": 4
  },
  {
    "id": "IT23",
    "name": "Bovalino",
    "type": "rail",
    "geo": {
      "lat": 38.150153,
      "lng": 16.18159
    },
    "importance": 4
  },
  {
    "id": "CH01575",
    "name": "Bovernier",
    "type": "rail",
    "importance": 4,
    "geo": {
      "lat": 46.078692,
      "lng": 7.082155
    }
  },
  {
    "id": "IT722",
    "name": "Bovino Deliceto",
    "type": "rail",
    "importance": 4
  },
  {
    "id": "IT724",
    "name": "Bovolone",
    "type": "rail",
    "geo": {
      "lat": 45.254654,
      "lng": 11.124421
    },
    "importance": 4
  },
  {
    "id": "CH08204",
    "name": "Bowil",
    "type": "rail",
    "importance": 4,
    "geo": {
      "lat": 46.900048,
      "lng": 7.698054
    }
  },
  {
    "id": "IT725",
    "name": "Bozzolo",
    "type": "rail",
    "geo": {
      "lat": 45.107185,
      "lng": 10.472751
    },
    "importance": 4
  },
  {
    "id": "IT727",
    "name": "Bra",
    "type": "rail",
    "geo": {
      "lat": 44.693757,
      "lng": 7.848553
    },
    "importance": 4
  },
  {
    "id": "IT728",
    "name": "Bracciano",
    "type": "rail",
    "geo": {
      "lat": 42.103755,
      "lng": 12.173283
    },
    "importance": 4
  },
  {
    "id": "IT3437",
    "name": "Bragno",
    "type": "rail",
    "geo": {
      "lat": 44.371683,
      "lng": 8.304475
    },
    "importance": 4
  },
  {
    "id": "IT24",
    "name": "Brancaleone",
    "type": "rail",
    "geo": {
      "lat": 37.965475,
      "lng": 16.103297
    },
    "importance": 4
  },
  {
    "id": "IT729",
    "name": "Brandizzo",
    "type": "rail",
    "geo": {
      "lat": 45.178753,
      "lng": 7.841202
    },
    "importance": 4
  },
  {
    "id": "IT730",
    "name": "Breil Sur Roya",
    "type": "rail",
    "geo": {
      "lat": 43.944057,
      "lng": 7.516446
    },
    "importance": 4
  },
  {
    "id": "CH02273",
    "name": "Bremgarten",
    "type": "rail",
    "importance": 4,
    "geo": {
      "lat": 47.351518,
      "lng": 8.346487
    }
  },
  {
    "id": "CH02185",
    "name": "Bremgarten Isenlauf",
    "type": "rail",
    "importance": 4,
    "geo": {
      "lat": 47.346065,
      "lng": 8.341526
    }
  },
  {
    "id": "CH02248",
    "name": "Bremgarten Obertor",
    "type": "rail",
    "importance": 4,
    "geo": {
      "lat": 47.350568,
      "lng": 8.343749
    }
  },
  {
    "id": "CH02272",
    "name": "Bremgarten West",
    "type": "rail",
    "importance": 4,
    "geo": {
      "lat": 47.345691,
      "lng": 8.337111
    }
  },
  {
    "id": "IT731",
    "name": "Brenna-Alzate",
    "type": "rail",
    "geo": {
      "lat": 45.75417,
      "lng": 9.18327
    },
    "importance": 4
  },
  {
    "id": "IT732",
    "name": "Brennero",
    "type": "rail",
    "geo": {
      "lat": 47.00242,
      "lng": 11.504898
    },
    "importance": 4
  },
  {
    "id": "ITM173",
    "name": "Brenta",
    "type": "metro",
    "geo": {
      "lat": 45.4427688,
      "lng": 9.2185197
    },
    "importance": 4
  },
  {
    "id": "CH08254",
    "name": "Brenzikofen",
    "type": "rail",
    "importance": 4,
    "geo": {
      "lat": 46.818345,
      "lng": 7.610745
    }
  },
  {
    "id": "IT734",
    "name": "Brescia",
    "type": "rail",
    "geo": {
      "lat": 45.53252,
      "lng": 10.21297
    },
    "importance": 2
  },
  {
    "id": "ITM98",
    "name": "Bresciadue",
    "type": "metro",
    "geo": {
      "lat": 45.5263665,
      "lng": 10.2124713
    },
    "importance": 4
  },
  {
    "id": "IT736",
    "name": "Bressana Argine",
    "type": "rail",
    "geo": {
      "lat": 45.07284,
      "lng": 9.13703
    },
    "importance": 4
  },
  {
    "id": "IT737",
    "name": "Bressana Bottarone",
    "type": "rail",
    "geo": {
      "lat": 45.086284,
      "lng": 9.110756
    },
    "importance": 4
  },
  {
    "id": "IT738",
    "name": "Bressanone",
    "type": "rail",
    "geo": {
      "lat": 46.709982,
      "lng": 11.650026
    },
    "importance": 4
  },
  {
    "id": "CH01105",
    "name": "Bretonnières",
    "type": "rail",
    "importance": 4,
    "geo": {
      "lat": 46.715055,
      "lng": 6.474733
    }
  },
  {
    "id": "IT25",
    "name": "Briatico",
    "type": "rail",
    "geo": {
      "lat": 38.725254,
      "lng": 16.025349
    },
    "importance": 4
  },
  {
    "id": "IT740",
    "name": "Bricherasio",
    "type": "rail",
    "importance": 4
  },
  {
    "id": "CH08305",
    "name": "Brienz",
    "type": "rail",
    "importance": 4,
    "geo": {
      "lat": 46.754844,
      "lng": 8.038946
    }
  },
  {
    "id": "CH08329",
    "name": "Brienz West",
    "type": "rail",
    "importance": 4,
    "geo": {
      "lat": 46.757312,
      "lng": 8.020377
    }
  },
  {
    "id": "CH08306",
    "name": "Brienzwiler",
    "type": "rail",
    "importance": 4,
    "geo": {
      "lat": 46.745685,
      "lng": 8.09063
    }
  },
  {
    "id": "CH01609",
    "name": "Brig",
    "type": "rail",
    "importance": 4,
    "geo": {
      "lat": 46.319423,
      "lng": 7.988095
    }
  },
  {
    "id": "CH19606",
    "name": "Brig Autoverlad",
    "type": "rail",
    "importance": 4,
    "geo": {
      "lat": 46.320946,
      "lng": 7.992794
    }
  },
  {
    "id": "CH15296",
    "name": "Brig Bahnhofplatz",
    "type": "rail",
    "importance": 4,
    "geo": {
      "lat": 46.319008,
      "lng": 7.986384
    }
  },
  {
    "id": "ITM94",
    "name": "Brignole",
    "type": "metro",
    "geo": {
      "lat": 44.407269,
      "lng": 8.9485007
    },
    "importance": 4
  },
  {
    "id": "ITM154",
    "name": "Brin",
    "type": "metro",
    "geo": {
      "lat": 44.4279912,
      "lng": 8.895685
    },
    "importance": 4
  },
  {
    "id": "IT741",
    "name": "Brindisi",
    "type": "rail",
    "geo": {
      "lat": 40.634287,
      "lng": 17.939289
    },
    "importance": 3
  },
  {
    "id": "IT2723",
    "name": "Brindisi Cittadella Della Ricerca",
    "type": "rail",
    "geo": {
      "lat": 40.589107,
      "lng": 17.848014
    },
    "importance": 4
  },
  {
    "id": "IT2786",
    "name": "Brindisi Perrino",
    "type": "rail",
    "geo": {
      "lat": 40.628072,
      "lng": 17.914333
    },
    "importance": 4
  },
  {
    "id": "IT743",
    "name": "Briona",
    "type": "rail",
    "importance": 4
  },
  {
    "id": "IT744",
    "name": "Brisighella",
    "type": "rail",
    "geo": {
      "lat": 44.220516,
      "lng": 11.769757
    },
    "importance": 4
  },
  {
    "id": "CH02002",
    "name": "Brittnau-Wikon",
    "type": "rail",
    "importance": 4,
    "geo": {
      "lat": 47.262666,
      "lng": 7.957041
    }
  },
  {
    "id": "CH04089",
    "name": "Broc-Chocolaterie",
    "type": "rail",
    "importance": 4,
    "geo": {
      "lat": 46.605416,
      "lng": 7.109339
    }
  },
  {
    "id": "CH04088",
    "name": "Broc-Village",
    "type": "rail",
    "importance": 4,
    "geo": {
      "lat": 46.60405,
      "lng": 7.09874
    }
  },
  {
    "id": "IT745",
    "name": "Brolo Ficarra",
    "type": "rail",
    "geo": {
      "lat": 38.159054,
      "lng": 14.830242
    },
    "importance": 4
  },
  {
    "id": "IT746",
    "name": "Broni",
    "type": "rail",
    "geo": {
      "lat": 45.066239,
      "lng": 9.258938
    },
    "importance": 4
  },
  {
    "id": "CH06181",
    "name": "Bronschhofen",
    "type": "rail",
    "importance": 4,
    "geo": {
      "lat": 47.475444,
      "lng": 9.034678
    }
  },
  {
    "id": "CH06188",
    "name": "Bronschhofen AMP",
    "type": "rail",
    "importance": 4,
    "geo": {
      "lat": 47.481267,
      "lng": 9.030928
    }
  },
  {
    "id": "IT747",
    "name": "Bronzolo",
    "type": "rail",
    "importance": 4
  },
  {
    "id": "IT748",
    "name": "Brozolo",
    "type": "rail",
    "importance": 4
  },
  {
    "id": "IT750",
    "name": "Brucoli",
    "type": "rail",
    "geo": {
      "lat": 37.271531,
      "lng": 15.186878
    },
    "importance": 4
  },
  {
    "id": "CH00309",
    "name": "Brugg AG",
    "type": "rail",
    "importance": 4,
    "geo": {
      "lat": 47.48086,
      "lng": 8.208845
    }
  },
  {
    "id": "CH04416",
    "name": "Brügg BE",
    "type": "rail",
    "importance": 4,
    "geo": {
      "lat": 47.12364,
      "lng": 7.278222
    }
  },
  {
    "id": "IT751",
    "name": "Brunico",
    "type": "rail",
    "geo": {
      "lat": 46.794482,
      "lng": 11.929926
    },
    "importance": 4
  },
  {
    "id": "IT1967",
    "name": "Brunico Nord",
    "type": "rail",
    "geo": {
      "lat": 46.800538,
      "lng": 11.936419
    },
    "importance": 4
  },
  {
    "id": "CH08309",
    "name": "Brünig-Hasliberg",
    "type": "rail",
    "importance": 4,
    "geo": {
      "lat": 46.757763,
      "lng": 8.138654
    }
  },
  {
    "id": "CH06294",
    "name": "Brunnadern-Neckertal",
    "type": "rail",
    "importance": 4,
    "geo": {
      "lat": 47.337827,
      "lng": 9.130595
    }
  },
  {
    "id": "CH05007",
    "name": "Brunnen",
    "type": "rail",
    "importance": 4,
    "geo": {
      "lat": 46.999175,
      "lng": 8.610068
    }
  },
  {
    "id": "IT752",
    "name": "Bruno",
    "type": "rail",
    "importance": 4
  },
  {
    "id": "CH09366",
    "name": "Brusio",
    "type": "rail",
    "importance": 4,
    "geo": {
      "lat": 46.259158,
      "lng": 10.124989
    }
  },
  {
    "id": "CH04467",
    "name": "Brüttelen",
    "type": "rail",
    "importance": 4,
    "geo": {
      "lat": 47.0206,
      "lng": 7.1483
    }
  },
  {
    "id": "IT753",
    "name": "Bruzolo Di Susa",
    "type": "rail",
    "geo": {
      "lat": 45.131215,
      "lng": 7.201552
    },
    "importance": 4
  },
  {
    "id": "CH03122",
    "name": "Bubikon",
    "type": "rail",
    "importance": 4,
    "geo": {
      "lat": 47.270841,
      "lng": 8.822715
    }
  },
  {
    "id": "IT754",
    "name": "Buccino S.Gregorio Magno",
    "type": "rail",
    "geo": {
      "lat": 40.601034,
      "lng": 15.373948
    },
    "importance": 4
  },
  {
    "id": "CH00289",
    "name": "Buchli",
    "type": "rail",
    "importance": 4,
    "geo": {
      "lat": 47.26363,
      "lng": 7.67839
    }
  },
  {
    "id": "CH16350",
    "name": "Buchrain",
    "type": "rail",
    "importance": 4,
    "geo": {
      "lat": 47.09365,
      "lng": 8.356659
    }
  },
  {
    "id": "CH02123",
    "name": "Buchs AG",
    "type": "rail",
    "importance": 4,
    "geo": {
      "lat": 47.389738,
      "lng": 8.069588
    }
  },
  {
    "id": "CH09404",
    "name": "Buchs SG",
    "type": "rail",
    "importance": 4,
    "geo": {
      "lat": 47.168412,
      "lng": 9.478637
    }
  },
  {
    "id": "CH03527",
    "name": "Buchs-Dällikon",
    "type": "rail",
    "importance": 4,
    "geo": {
      "lat": 47.453405,
      "lng": 8.435602
    }
  },
  {
    "id": "IT755",
    "name": "Bucine",
    "type": "rail",
    "geo": {
      "lat": 43.480413,
      "lng": 11.617583
    },
    "importance": 4
  },
  {
    "id": "CH00034",
    "name": "Buckten",
    "type": "rail",
    "importance": 4,
    "geo": {
      "lat": 47.408991,
      "lng": 7.847801
    }
  },
  {
    "id": "IT756",
    "name": "Budoia Polcenigo",
    "type": "rail",
    "geo": {
      "lat": 46.031333,
      "lng": 12.537649
    },
    "importance": 4
  },
  {
    "id": "IT757",
    "name": "Bugnara",
    "type": "rail",
    "geo": {
      "lat": 42.031133,
      "lng": 13.861848
    },
    "importance": 4
  },
  {
    "id": "CH05177",
    "name": "Bugnei",
    "type": "rail",
    "importance": 4,
    "geo": {
      "lat": 46.682347,
      "lng": 8.786467
    }
  },
  {
    "id": "CH06377",
    "name": "Bühler",
    "type": "rail",
    "importance": 4,
    "geo": {
      "lat": 47.372975,
      "lng": 9.421091
    }
  },
  {
    "id": "CH00144",
    "name": "Buix",
    "type": "rail",
    "importance": 4,
    "geo": {
      "lat": 47.479333,
      "lng": 7.029967
    }
  },
  {
    "id": "CH03400",
    "name": "Bülach",
    "type": "rail",
    "importance": 4,
    "geo": {
      "lat": 47.52395,
      "lng": 8.536209
    }
  },
  {
    "id": "CH04086",
    "name": "Bulle",
    "type": "rail",
    "importance": 4,
    "geo": {
      "lat": 46.619225,
      "lng": 7.053002
    }
  },
  {
    "id": "ITM232",
    "name": "Buonarroti",
    "type": "metro",
    "geo": {
      "lat": 45.4704169,
      "lng": 9.155316
    },
    "importance": 4
  },
  {
    "id": "IT758",
    "name": "Buonconvento",
    "type": "rail",
    "geo": {
      "lat": 43.135379,
      "lng": 11.483568
    },
    "importance": 4
  },
  {
    "id": "CH00221",
    "name": "Büren an der Aare",
    "type": "rail",
    "importance": 4,
    "geo": {
      "lat": 47.138157,
      "lng": 7.371243
    }
  },
  {
    "id": "CH08062",
    "name": "Büren zum Hof",
    "type": "rail",
    "importance": 4,
    "geo": {
      "lat": 47.09595,
      "lng": 7.51881
    }
  },
  {
    "id": "CH08005",
    "name": "Burgdorf",
    "type": "rail",
    "importance": 4,
    "geo": {
      "lat": 47.060701,
      "lng": 7.621694
    }
  },
  {
    "id": "CH08083",
    "name": "Burgdorf Buchmatt",
    "type": "rail",
    "importance": 4,
    "geo": {
      "lat": 47.065458,
      "lng": 7.608276
    }
  },
  {
    "id": "CH08081",
    "name": "Burgdorf Steinhof",
    "type": "rail",
    "importance": 4,
    "geo": {
      "lat": 47.0512,
      "lng": 7.619539
    }
  },
  {
    "id": "CH03287",
    "name": "Burghalden",
    "type": "rail",
    "importance": 4,
    "geo": {
      "lat": 47.208674,
      "lng": 8.692719
    }
  },
  {
    "id": "CH07287",
    "name": "Burgholz",
    "type": "rail",
    "importance": 4,
    "geo": {
      "lat": 46.665751,
      "lng": 7.603229
    }
  },
  {
    "id": "CH07072",
    "name": "Burgistein",
    "type": "rail",
    "importance": 4,
    "geo": {
      "lat": 46.789438,
      "lng": 7.521227
    }
  },
  {
    "id": "CH07382",
    "name": "Burglauenen",
    "type": "rail",
    "importance": 4,
    "geo": {
      "lat": 46.63591,
      "lng": 7.97533
    }
  },
  {
    "id": "CH06106",
    "name": "Bürglen TG",
    "type": "rail",
    "importance": 4,
    "geo": {
      "lat": 47.549098,
      "lng": 9.149877
    }
  },
  {
    "id": "CH01202",
    "name": "Burier",
    "type": "rail",
    "importance": 4,
    "geo": {
      "lat": 46.447886,
      "lng": 6.877122
    }
  },
  {
    "id": "IT760",
    "name": "Buronzo",
    "type": "rail",
    "importance": 4
  },
  {
    "id": "IT2386",
    "name": "Busa Di Vigonza",
    "type": "rail",
    "geo": {
      "lat": 45.429874,
      "lng": 11.951813
    },
    "importance": 4
  },
  {
    "id": "IT219",
    "name": "Busalla",
    "type": "rail",
    "geo": {
      "lat": 44.575455,
      "lng": 8.943436
    },
    "importance": 4
  },
  {
    "id": "IT761",
    "name": "Busca",
    "type": "rail",
    "geo": {
      "lat": 44.520578,
      "lng": 7.481549
    },
    "importance": 4
  },
  {
    "id": "IT762",
    "name": "Busche Lentiai Mel",
    "type": "rail",
    "geo": {
      "lat": 46.04003,
      "lng": 11.979362
    },
    "importance": 4
  },
  {
    "id": "ITM119",
    "name": "Bussero",
    "type": "metro",
    "geo": {
      "lat": 45.5254191,
      "lng": 9.3758581
    },
    "importance": 4
  },
  {
    "id": "IT763",
    "name": "Busseto",
    "type": "rail",
    "geo": {
      "lat": 44.974691,
      "lng": 10.038909
    },
    "importance": 4
  },
  {
    "id": "IT764",
    "name": "Bussi",
    "type": "rail",
    "geo": {
      "lat": 42.194229,
      "lng": 13.848965
    },
    "importance": 4
  },
  {
    "id": "CH01117",
    "name": "Bussigny",
    "type": "rail",
    "importance": 4,
    "geo": {
      "lat": 46.54759,
      "lng": 6.551826
    }
  },
  {
    "id": "CH06190",
    "name": "Bussnang",
    "type": "rail",
    "importance": 4,
    "geo": {
      "lat": 47.556084,
      "lng": 9.084163
    }
  },
  {
    "id": "IT765",
    "name": "Bussoleno",
    "type": "rail",
    "geo": {
      "lat": 45.139643,
      "lng": 7.14474
    },
    "importance": 4
  },
  {
    "id": "CH04415",
    "name": "Busswil BE",
    "type": "rail",
    "importance": 4,
    "geo": {
      "lat": 47.098685,
      "lng": 7.318623
    }
  },
  {
    "id": "CH01092",
    "name": "Bussy-Chardonney",
    "type": "rail",
    "importance": 4,
    "geo": {
      "lat": 46.52678,
      "lng": 6.44651
    }
  },
  {
    "id": "IT766",
    "name": "Busto Arsizio",
    "type": "rail",
    "geo": {
      "lat": 45.61593,
      "lng": 8.865897
    },
    "importance": 3
  },
  {
    "id": "CH06203",
    "name": "Bütschwil",
    "type": "rail",
    "importance": 4,
    "geo": {
      "lat": 47.359591,
      "lng": 9.075151
    }
  },
  {
    "id": "IT768",
    "name": "Buttafava",
    "type": "rail",
    "geo": {
      "lat": 45.621426,
      "lng": 9.3013
    },
    "importance": 4
  },
  {
    "id": "IT769",
    "name": "Buttapietra",
    "type": "rail",
    "geo": {
      "lat": 45.338781,
      "lng": 10.988063
    },
    "importance": 4
  },
  {
    "id": "CH04288",
    "name": "Buttes",
    "type": "rail",
    "importance": 4,
    "geo": {
      "lat": 46.888346,
      "lng": 6.553195
    }
  },
  {
    "id": "IT770",
    "name": "Buttrio",
    "type": "rail",
    "geo": {
      "lat": 46.012434,
      "lng": 13.329449
    },
    "importance": 4
  },
  {
    "id": "ITM249",
    "name": "Ca' Granda - Pratocentenaro",
    "type": "metro",
    "geo": {
      "lat": 45.5072418,
      "lng": 9.201118
    },
    "importance": 4
  },
  {
    "id": "IT778",
    "name": "Ca` Di Boschetti",
    "type": "rail",
    "geo": {
      "lat": 44.118221,
      "lng": 9.864074
    },
    "importance": 4
  },
  {
    "id": "CH05404",
    "name": "Cadenazzo",
    "type": "rail",
    "importance": 4,
    "geo": {
      "lat": 46.15262,
      "lng": 8.941699
    }
  },
  {
    "id": "IT785",
    "name": "Cadeo",
    "type": "rail",
    "geo": {
      "lat": 44.967288,
      "lng": 9.853192
    },
    "importance": 4
  },
  {
    "id": "CH09359",
    "name": "Cadera",
    "type": "rail",
    "importance": 4,
    "geo": {
      "lat": 46.345249,
      "lng": 10.05142
    }
  },
  {
    "id": "ITM200",
    "name": "Cadorna FN",
    "type": "metro",
    "importance": 4,
    "geo": {
      "lat": 45.4682,
      "lng": 9.175883
    }
  },
  {
    "id": "IT787",
    "name": "Cagliari",
    "type": "rail",
    "geo": {
      "lat": 39.215977,
      "lng": 9.108262
    },
    "importance": 2
  },