{
  "type": "FeatureCollection",
  "features": [
    {
      "type": "Feature",
      "properties": {
        "id": "NLM000",
        "name": "'s-Gravenweg",
        "type": "metro",
        "importance": 4
      },
      "geometry": {
        "type": "Point",
        "coordinates": [4.547673, 51.919502]
      }
    },
    {
      "type": "Feature",
      "properties": {
        "id": "NL319",
        "name": "'s-Hertogenbosch",
        "type": "rail",
        "importance": 4
      },
      "geometry": {
        "type": "Point",
        "coordinates": [5.29362, 51.69048]
      }
    },
    {
      "type": "Feature",
      "properties": {
        "id": "NL320",
        "name": "'s-Hertogenbosch Oost",
        "type": "rail",
        "importance": 4
      },
      "geometry": {
        "type": "Point",
        "coordinates": [5.318333, 51.700554]
      }
    },
    {
      "type": "Feature",
      "properties": {
        "id": "NL388",
        "name": "'t Harde",
        "type": "rail",
        "importance": 4
      },
      "geometry": {
        "type": "Point",
        "coordinates": [5.893611, 52.409168]
      }
    },
    {
      "type": "Feature",
      "properties": {
        "id": "ITM101",
        "name": "A2A Lamarmora (Brescia)",
        "type": "metro",
        "importance": 4
      },
      "geometry": {
        "type": "Point",
        "coordinates": [10.212853, 45.521668]
      }
    },
    {
      "type": "Feature",
      "properties": {
        "id": "CH06013",
        "name": "Aadorf",
        "type": "rail",
        "importance": 4
      },
      "geometry": {
        "type": "Point",
        "coordinates": [8.903301, 47.488118]
      }
    },
    {
      "type": "Feature",
      "properties": {
        "id": "BE95000",
        "name": "Aalst",
        "type": "rail",
        "importance": 3
      },
      "geometry": {
        "type": "Point",
        "coordinates": [4.039653, 50.942813]
      }
    },
    {
      "type": "Feature",
      "properties": {
        "id": "BE95125",
        "name": "Aalst-Kerrebroek",
        "type": "rail",
        "importance": 4
      },
      "geometry": {
        "type": "Point",
        "coordinates": [4.024407, 50.948377]
      }
    },
    {
      "type": "Feature",
      "properties": {
        "id": "NL045",
        "name": "Aalten",
        "type": "rail",
        "importance": 4
      },
      "geometry": {
        "type": "Point",
        "coordinates": [6.578627, 51.921327]
      }
    },
    {
      "type": "Feature",
      "properties": {
        "id": "BE91140",
        "name": "Aalter",
        "type": "rail",
        "importance": 4
      },
      "geometry": {
        "type": "Point",
        "coordinates": [3.447848, 51.092295]
      }
    },
    {
      "type": "Feature",
      "properties": {
        "id": "FIM001",
        "name": "Aalto-yliopisto",
        "type": "metro",
        "importance": 4
      },
      "geometry": {
        "type": "Point",
        "coordinates": [24.823571, 60.184463]
      }
    },
    {
      "type": "Feature",
      "properties": {
        "id": "CH02113",
        "name": "Aarau",
        "type": "light",
        "importance": 3
      },
      "geometry": {
        "type": "Point",
        "coordinates": [8.051274, 47.39136]
      }
    },
    {
      "type": "Feature",
      "properties": {
        "id": "CH19685",
        "name": "Aarau Torfeld",
        "type": "light",
        "importance": 4
      },
      "geometry": {
        "type": "Point",
        "coordinates": [8.06264, 47.393563]
      }
    },
    {
      "type": "Feature",
      "properties": {
        "id": "CH04404",
        "name": "Aarberg",
        "type": "rail",
        "importance": 4
      },
      "geometry": {
        "type": "Point",
        "coordinates": [7.278693, 47.044541]
      }
    },
    {
      "type": "Feature",
      "properties": {
        "id": "CH02000",
        "name": "Aarburg-Oftringen",
        "type": "rail",
        "importance": 4
      },
      "geometry": {
        "type": "Point",
        "coordinates": [7.908223, 47.320268]
      }
    },
    {
      "type": "Feature",
      "properties": {
        "id": "CH30801",
        "name": "Aareschlucht Ost (Bahn)",
        "type": "rail",
        "importance": 4
      },
      "geometry": {
        "type": "Point",
        "coordinates": [8.217895, 46.712]
      }
    },
    {
      "type": "Feature",
      "properties": {
        "id": "CH30760",
        "name": "Aareschlucht West",
        "type": "rail",
        "importance": 4
      },
      "geometry": {
        "type": "Point",
        "coordinates": [8.198577, 46.721247]
      }
    },
    {
      "type": "Feature",
      "properties": {
        "id": "BE33209",
        "name": "Aarschot",
        "type": "rail",
        "importance": 4
      },
      "geometry": {
        "type": "Point",
        "coordinates": [4.824043, 50.984406]
      }
    },
    {
      "type": "Feature",
      "properties": {
        "id": "BE92288",
        "name": "Aarsele",
        "type": "rail",
        "importance": 4
      },
      "geometry": {
        "type": "Point",
        "coordinates": [3.418363, 50.98446]
      }
    },
    {
      "type": "Feature",
      "properties": {
        "id": "CH08153",
        "name": "Aarwangen",
        "type": "rail",
        "importance": 4
      },
      "geometry": {
        "type": "Point",
        "coordinates": [7.769619, 47.240875]
      }
    },
    {
      "type": "Feature",
      "properties": {
        "id": "CH08154",
        "name": "Aarwangen Schloss",
        "type": "rail",
        "importance": 4
      },
      "geometry": {
        "type": "Point",
        "coordinates": [7.76362, 47.24518]
      }
    },
    {
      "type": "Feature",
      "properties": {
        "id": "CH08193",
        "name": "Aarwangen Vorstadt",
        "type": "light",
        "importance": 4
      },
      "geometry": {
        "type": "Point",
        "coordinates": [7.77131, 47.23749]
      }
    },
    {
      "type": "Feature",
      "properties": {
        "id": "CH03124",
        "name": "Aathal",
        "type": "rail",
        "importance": 4
      },
      "geometry": {
        "type": "Point",
        "coordinates": [8.765625, 47.335959]
      }
    },
    {
      "type": "Feature",
      "properties": {
        "id": "IT364",
        "name": "Abano Terme",
        "type": "rail",
        "importance": 4
      },
      "geometry": {
        "type": "Point",
        "coordinates": [11.811421, 45.355339]
      }
    },
    {
      "type": "Feature",
      "properties": {
        "id": "IT365",
        "name": "Abbadia Lariana",
        "type": "rail",
        "importance": 4
      },
      "geometry": {
        "type": "Point",
        "coordinates": [9.335066, 45.895786]
      }
    },
    {
      "type": "Feature",
      "properties": {
        "id": "IT366",
        "name": "Abbasanta",
        "type": "rail",
        "importance": 4
      },
      "geometry": {
        "type": "Point",
        "coordinates": [8.816135, 40.126667]
      }
    },
    {
      "type": "Feature",
      "properties": {
        "id": "UKL001",
        "name": "Abbey Road",
        "type": "light",
        "importance": 4
      },
      "geometry": {
        "type": "Point",
        "coordinates": [0.0036092, 51.5325414]
      }
    },
    {
      "type": "Feature",
      "properties": {
        "id": "IEL047",
        "name": "Abbey Street",
        "type": "light",
        "importance": 4
      },
      "geometry": {
        "type": "Point",
        "coordinates": [-6.2581701, 53.3485991]
      }
    },
    {
      "type": "Feature",
      "properties": {
        "id": "UK5131",
        "name": "Abbey Wood",
        "type": "rail",
        "importance": 3
      },
      "geometry": {
        "type": "Point",
        "coordinates": [0.1204062, 51.4910781]
      }
    },
    {
      "type": "Feature",
      "properties": {
        "id": "IT367",
        "name": "Abbiategrasso",
        "type": "rail",
        "importance": 4
      },
      "geometry": {
        "type": "Point",
        "coordinates": [8.920445, 45.397588]
      }
    },
    {
      "type": "Feature",
      "properties": {
        "id": "ITM152",
        "name": "Abbiategrasso-Chiesa Rossa (Milano)",
        "type": "metro",
        "importance": 4
      },
      "geometry": {
        "type": "Point",
        "coordinates": [9.177322, 45.430014]
      }
    },
    {
      "type": "Feature",
      "properties": {
        "id": "NL047",
        "name": "Abcoude",
        "type": "rail",
        "importance": 4
      },
      "geometry": {
        "type": "Point",
        "coordinates": [4.977, 52.2785]
      }
    },
    {
      "type": "Feature",
      "properties": {
        "id": "UK3813",
        "name": "Aber",
        "type": "rail",
        "importance": 4
      },
      "geometry": {
        "type": "Point",
        "coordinates": [-3.2298096, 51.5748662]
      }
    },
    {
      "type": "Feature",
      "properties": {
        "id": "UK3801",
        "name": "Abercynon",
        "type": "rail",
        "importance": 4
      },
      "geometry": {
        "type": "Point",
        "coordinates": [-3.3296312, 51.6430833]
      }
    },
    {
      "type": "Feature",
      "properties": {
        "id": "UK3982",
        "name": "Aberdare (Platform 2)",
        "type": "rail",
        "importance": 4
      },
      "geometry": {
        "type": "Point",
        "coordinates": [-3.4395026, 51.7137509]
      }
    },
    {
      "type": "Feature",
      "properties": {
        "id": "UK8976",
        "name": "Aberdeen",
        "type": "rail",
        "importance": 2
      },
      "geometry": {
        "type": "Point",
        "coordinates": [-2.0976346, 57.1426487]
      }
    },
    {
      "type": "Feature",
      "properties": {
        "id": "UK9090",
        "name": "Aberdour",
        "type": "rail",
        "importance": 4
      },
      "geometry": {
        "type": "Point",
        "coordinates": [-3.3009757, 56.0547554]
      }
    },
    {
      "type": "Feature",
      "properties": {
        "id": "UK4435",
        "name": "Aberdovey",
        "type": "rail",
        "importance": 4
      },
      "geometry": {
        "type": "Point",
        "coordinates": [-4.0563163, 52.5443486]
      }
    },
    {
      "type": "Feature",
      "properties": {
        "id": "UK4440",
        "name": "Abererch",
        "type": "rail",
        "importance": 4
      },
      "geometry": {
        "type": "Point",
        "coordinates": [-4.3749053, 52.8983791]
      }
    },
    {
      "type": "Feature",
      "properties": {
        "id": "UK3602",
        "name": "Abergavenny",
        "type": "rail",
        "importance": 4
      },
      "geometry": {
        "type": "Point",
        "coordinates": [-3.0090126, 51.8174352]
      }
    },
    {
      "type": "Feature",
      "properties": {
        "id": "UK2448",
        "name": "Abergele & Pensarn",
        "type": "rail",
        "importance": 4
      },
      "geometry": {
        "type": "Point",
        "coordinates": [-3.5826531, 53.2945866]
      }
    },
    {
      "type": "Feature",
      "properties": {
        "id": "UK4303",
        "name": "Aberystwyth",
        "type": "rail",
        "importance": 4
      },
      "geometry": {
        "type": "Point",
        "coordinates": [-4.0815468, 52.4138938]
      }
    },
    {
      "type": "Feature",
      "properties": {
        "id": "IT368",
        "name": "Acate",
        "type": "rail",
        "importance": 4
      },
      "geometry": {
        "type": "Point",
        "coordinates": [14.425544, 36.996732]
      }
    },
    {
      "type": "Feature",
      "properties": {
        "id": "IT369",
        "name": "Acciano",
        "type": "rail",
        "importance": 4
      },
      "geometry": {
        "type": "Point",
        "coordinates": [13.711102, 42.17675]
      }
    },
    {
      "type": "Feature",
      "properties": {
        "id": "UK2552",
        "name": "Accrington",
        "type": "rail",
        "importance": 4
      },
      "geometry": {
        "type": "Point",
        "coordinates": [-2.3701201, 53.7527983]
      }
    },
    {
      "type": "Feature",
      "properties": {
        "id": "IT370",
        "name": "Acerra",
        "type": "rail",
        "importance": 4
      },
      "geometry": {
        "type": "Point",
        "coordinates": [14.372859, 40.939861]
      }
    },
    {
      "type": "Feature",
      "properties": {
        "id": "ITL100",
        "name": "Acerra",
        "type": "light",
        "importance": 4
      },
      "geometry": {
        "type": "Point",
        "coordinates": [14.382552, 40.947391]
      }
    },
    {
      "type": "Feature",
      "properties": {
        "id": "UK8600",
        "name": "Achanalt",
        "type": "rail",
        "importance": 4
      },
      "geometry": {
        "type": "Point",
        "coordinates": [-4.9138447, 57.6096032]
      }
    },
    {
      "type": "Feature",
      "properties": {
        "id": "UK8601",
        "name": "Achnasheen",
        "type": "rail",
        "importance": 4
      },
      "geometry": {
        "type": "Point",
        "coordinates": [-5.0721994, 57.5793199]
      }
    },
    {
      "type": "Feature",
      "properties": {
        "id": "UK8602",
        "name": "Achnashellach",
        "type": "rail",
        "importance": 4
      },
      "geometry": {
        "type": "Point",
        "coordinates": [-5.3333224, 57.482028]
      }
    },
    {
      "type": "Feature",
      "properties": {
        "id": "ITM011",
        "name": "Acilia",
        "type": "metro",
        "importance": 4
      },
      "geometry": {
        "type": "Point",
        "coordinates": [12.360852, 41.783534]
      }
    },
    {
      "type": "Feature",
      "properties": {
        "id": "ITM293",
        "name": "Acilia Sud - Dragona",
        "type": "metro",
        "importance": 4
      },
      "geometry": {
        "type": "Point",
        "coordinates": [12.342047, 41.776062]
      }
    },
    {
      "type": "Feature",
      "properties": {
        "id": "IT371",
        "name": "Acireale",
        "type": "rail",
        "importance": 4
      },
      "geometry": {
        "type": "Point",
        "coordinates": [15.161525, 37.595831]
      }
    },
    {
      "type": "Feature",
      "properties": {
        "id": "UK7662",
        "name": "Acklington",
        "type": "rail",
        "importance": 4
      },
      "geometry": {
        "type": "Point",
        "coordinates": [-1.6517687, 55.3072171]
      }
    },
    {
      "type": "Feature",
      "properties": {
        "id": "CH05180",
        "name": "Acla da Fontauna",
        "type": "rail",
        "importance": 4
      },
      "geometry": {
        "type": "Point",
        "coordinates": [8.845791, 46.697174]
      }
    },
    {
      "type": "Feature",
      "properties": {
        "id": "UK7286",
        "name": "Acle",
        "type": "rail",
        "importance": 4
      },
      "geometry": {
        "type": "Point",
        "coordinates": [1.5439772, 52.6346757]
      }
    },
    {
      "type": "Feature",
      "properties": {
        "id": "UK4529",
        "name": "Acocks Green",
        "type": "rail",
        "importance": 4
      },
      "geometry": {
        "type": "Point",
        "coordinates": [-1.8192198, 52.449547]
      }
    },
    {
      "type": "Feature",
      "properties": {
        "id": "IT372",
        "name": "Acqua Acetosa",
        "type": "rail",
        "importance": 4
      },
      "geometry": {
        "type": "Point",
        "coordinates": [12.487228, 41.93179]
      }
    },
    {
      "type": "Feature",
      "properties": {
        "id": "ITL149",
        "name": "Acqua Acetosa",
        "type": "light",
        "importance": 4
      },
      "geometry": {
        "type": "Point",
        "coordinates": [12.616634, 41.794053]
      }
    },
    {
      "type": "Feature",
      "properties": {
        "id": "IT1",
        "name": "Acquafredda",
        "type": "rail",
        "importance": 4
      },
      "geometry": {
        "type": "Point",
        "coordinates": [15.671849, 40.035529]
      }
    },
    {
      "type": "Feature",
      "properties": {
        "id": "IT373",
        "name": "Acquamela",
        "type": "rail",
        "importance": 4
      },
      "geometry": {
        "type": "Point",
        "coordinates": [14.772197, 40.733401]
      }
    },
    {
      "type": "Feature",
      "properties": {
        "id": "IT374",
        "name": "Acquanegra Cremonese",
        "type": "rail",
        "importance": 4
      },
      "geometry": {
        "type": "Point",
        "coordinates": [9.888607, 45.17194]
      }
    },
    {
      "type": "Feature",
      "properties": {
        "id": "IT376",
        "name": "Acquaviva Casteltermini",
        "type": "rail",
        "importance": 4
      },
      "geometry": {
        "type": "Point",
        "coordinates": [13.674932, 37.569819]
      }
    },
    {
      "type": "Feature",
      "properties": {
        "id": "IT377",
        "name": "Acquaviva Delle Fonti",
        "type": "rail",
        "importance": 4
      },
      "geometry": {
        "type": "Point",
        "coordinates": [16.839915, 40.892867]
      }
    },
    {
      "type": "Feature",
      "properties": {
        "id": "IT188",
        "name": "Acqui Terme",
        "type": "rail",
        "importance": 4
      },
      "geometry": {
        "type": "Point",
        "coordinates": [8.473459, 44.672534]
      }
    },
    {
      "type": "Feature",
      "properties": {
        "id": "BE86546",
        "name": "Acren",
        "type": "rail",
        "importance": 4
      },
      "geometry": {
        "type": "Point",
        "coordinates": [3.847086, 50.733095]
      }
    },
    {
      "type": "Feature",
      "properties": {
        "id": "UK2287",
        "name": "Acton Bridge (Cheshire)",
        "type": "rail",
        "importance": 4
      },
      "geometry": {
        "type": "Point",
        "coordinates": [-2.602769, 53.2662973]
      }
    },
    {
      "type": "Feature",
      "properties": {
        "id": "UK1404",
        "name": "Acton Central",
        "type": "rail",
        "importance": 4
      },
      "geometry": {
        "type": "Point",
        "coordinates": [-0.2628073, 51.5087164]
      }
    },
    {
      "type": "Feature",
      "properties": {
        "id": "UK3000",
        "name": "Acton Main Line",
        "type": "rail",
        "importance": 4
      },
      "geometry": {
        "type": "Point",
        "coordinates": [-0.2679825, 51.5169789]
      }
    },
    {
      "type": "Feature",
      "properties": {
        "id": "UKM001",
        "name": "Acton Town",
        "type": "metro",
        "importance": 4
      },
      "geometry": {
        "type": "Point",
        "coordinates": [-0.2799643, 51.5027051]
      }
    },
    {
      "type": "Feature",
      "properties": {
        "id": "IE75",
        "name": "Adamstown",
        "type": "rail",
        "importance": 4
      },
      "geometry": {
        "type": "Point",
        "coordinates": [-6.45233, 53.3353]
      }
    },
    {
      "type": "Feature",
      "properties": {
        "id": "UK1036",
        "name": "Adderley Park",
        "type": "rail",
        "importance": 4
      },
      "geometry": {
        "type": "Point",
        "coordinates": [-1.8554151, 52.4830636]
      }
    },
    {
      "type": "Feature",
      "properties": {
        "id": "UK9310",
        "name": "Addiewell",
        "type": "rail",
        "importance": 4
      },
      "geometry": {
        "type": "Point",
        "coordinates": [-3.6063049, 55.8434492]
      }
    },
    {
      "type": "Feature",
      "properties": {
        "id": "UK5550",
        "name": "Addlestone",
        "type": "rail",
        "importance": 4
      },
      "geometry": {
        "type": "Point",
        "coordinates": [-0.4845082, 51.3731128]
      }
    },
    {
      "type": "Feature",
      "properties": {
        "id": "UK5160",
        "name": "Adisham",
        "type": "rail",
        "importance": 4
      },
      "geometry": {
        "type": "Point",
        "coordinates": [1.1987288, 51.2413424]
      }
    },
    {
      "type": "Feature",
      "properties": {
        "id": "UK2939",
        "name": "Adlington (Cheshire)",
        "type": "rail",
        "importance": 4
      },
      "geometry": {
        "type": "Point",
        "coordinates": [-2.1336443, 53.3197238]
      }
    },
    {
      "type": "Feature",
      "properties": {
        "id": "UK2641",
        "name": "Adlington (Lancashire)",
        "type": "rail",
        "importance": 4
      },
      "geometry": {
        "type": "Point",
        "coordinates": [-2.6028597, 53.6130719]
      }
    },
    {
      "type": "Feature",
      "properties": {
        "id": "CH03096",
        "name": "Adliswil",
        "type": "rail",
        "importance": 4
      },
      "geometry": {
        "type": "Point",
        "coordinates": [8.524254, 47.312274]
      }
    },
    {
      "type": "Feature",
      "properties": {
        "id": "IT378",
        "name": "Adria",
        "type": "rail",
        "importance": 4
      },
      "geometry": {
        "type": "Point",
        "coordinates": [12.05423, 45.060506]
      }
    },
    {
      "type": "Feature",
      "properties": {
        "id": "UK8353",
        "name": "Adwick",
        "type": "rail",
        "importance": 4
      },
      "geometry": {
        "type": "Point",
        "coordinates": [-1.1798897, 53.5719324]
      }
    },
    {
      "type": "Feature",
      "properties": {
        "id": "CH08085",
        "name": "Aefligen",
        "type": "rail",
        "importance": 4
      },
      "geometry": {
        "type": "Point",
        "coordinates": [7.559253, 47.095594]
      }
    },
    {
      "type": "Feature",
      "properties": {
        "id": "CH00117",
        "name": "Aesch BL",
        "type": "rail",
        "importance": 4
      },
      "geometry": {
        "type": "Point",
        "coordinates": [7.603068, 47.467745]
      }
    },
    {
      "type": "Feature",
      "properties": {
        "id": "CH02224",
        "name": "Affoltern am Albis",
        "type": "rail",
        "importance": 4
      },
      "geometry": {
        "type": "Point",
        "coordinates": [8.446595, 47.27607]
      }
    },
    {
      "type": "Feature",
      "properties": {
        "id": "CH08275",
        "name": "Affoltern-Weier",
        "type": "rail",
        "importance": 4
      },
      "geometry": {
        "type": "Point",
        "coordinates": [7.749855, 47.061917]
      }
    },
    {
      "type": "Feature",
      "properties": {
        "id": "ITM166",
        "name": "Affori Centro (Milano)",
        "type": "metro",
        "importance": 4
      },
      "geometry": {
        "type": "Point",
        "coordinates": [9.173966, 45.513539]
      }
    },
    {
      "type": "Feature",
      "properties": {
        "id": "ITM052",
        "name": "Affori FN (Milano)",
        "type": "metro",
        "importance": 4
      },
      "geometry": {
        "type": "Point",
        "coordinates": [9.168291, 45.521615]
      }
    },
    {
      "type": "Feature",
      "properties": {
        "id": "IT4",
        "name": "Africo Nuovo",
        "type": "rail",
        "importance": 4
      },
      "geometry": {
        "type": "Point",
        "coordinates": [16.143902, 38.052651]
      }
    },
    {
      "type": "Feature",
      "properties": {
        "id": "IT379",
        "name": "Agliano Castelnuovo Calcea",
        "type": "rail",
        "importance": 4
      },
      "geometry": {
        "type": "Point",
        "coordinates": [8.267733, 44.786112]
      }
    },
    {
      "type": "Feature",
      "properties": {
        "id": "CH05395",
        "name": "Agno",
        "type": "rail",
        "importance": 4
      },
      "geometry": {
        "type": "Point",
        "coordinates": [8.90092, 45.99593]
      }
    },
    {
      "type": "Feature",
      "properties": {
        "id": "IT3252",
        "name": "Agognate",
        "type": "rail",
        "importance": 4
      },
      "geometry": {
        "type": "Point",
        "coordinates": [8.58017, 45.47092]
      }
    },
    {
      "type": "Feature",
      "properties": {
        "id": "IT383",
        "name": "Agrigento Bassa",
        "type": "rail",
        "importance": 4
      },
      "geometry": {
        "type": "Point",
        "coordinates": [13.58812, 37.319244]
      }
    },
    {
      "type": "Feature",
      "properties": {
        "id": "IT384",
        "name": "Agrigento Centrale",
        "type": "rail",
        "importance": 3
      },
      "geometry": {
        "type": "Point",
        "coordinates": [13.584723, 37.309079]
      }
    },
    {
      "type": "Feature",
      "properties": {
        "id": "IT5",
        "name": "Agropoli Castellabate",
        "type": "rail",
        "importance": 4
      },
      "geometry": {
        "type": "Point",
        "coordinates": [15.001761, 40.351642]
      }
    },
    {
      "type": "Feature",
      "properties": {
        "id": "FI265",
        "name": "Ähtäri",
        "type": "rail",
        "importance": 4
      },
      "geometry": {
        "type": "Point",
        "coordinates": [24.064036, 62.553265]
      }
    },
    {
      "type": "Feature",
      "properties": {
        "id": "IT386",
        "name": "Aielli",
        "type": "rail",
        "importance": 4
      },
      "geometry": {
        "type": "Point",
        "coordinates": [13.581246, 42.062191]
      }
    },
    {
      "type": "Feature",
      "properties": {
        "id": "UK2255",
        "name": "Aigburth",
        "type": "rail",
        "importance": 4
      },
      "geometry": {
        "type": "Point",
        "coordinates": [-2.9266096, 53.3645118]
      }
    },
    {
      "type": "Feature",
      "properties": {
        "id": "CH01400",
        "name": "Aigle",
        "type": "rail",
        "importance": 4
      },
      "geometry": {
        "type": "Point",
        "coordinates": [6.963683, 46.316855]
      }
    },
    {
      "type": "Feature",
      "properties": {
        "id": "CH01468",
        "name": "Aigle-Château",
        "type": "rail",
        "importance": 4
      },
      "geometry": {
        "type": "Point",
        "coordinates": [6.978921, 46.316872]
      }
    },
    {
      "type": "Feature",
      "properties": {
        "id": "CH01484",
        "name": "Aigle-Dépôt",
        "type": "rail",
        "importance": 4
      },
      "geometry": {
        "type": "Point",
        "coordinates": [6.97537, 46.31829]
      }
    },
    {
      "type": "Feature",
      "properties": {
        "id": "CH17484",
        "name": "Aigle-Parc Aventure",
        "type": "rail",
        "importance": 4
      },
      "geometry": {
        "type": "Point",
        "coordinates": [6.98622, 46.3153]
      }
    },
    {
      "type": "Feature",
      "properties": {
        "id": "CH01554",
        "name": "Aigle-Place-du-Marché",
        "type": "rail",
        "importance": 4
      },
      "geometry": {
        "type": "Point",
        "coordinates": [6.97034, 46.31724]
      }
    },
    {
      "type": "Feature",
      "properties": {
        "id": "UK2350",
        "name": "Ainsdale",
        "type": "rail",
        "importance": 4
      },
      "geometry": {
        "type": "Point",
        "coordinates": [-3.04264, 53.6018568]
      }
    },
    {
      "type": "Feature",
      "properties": {
        "id": "UK2125",
        "name": "Aintree",
        "type": "rail",
        "importance": 4
      },
      "geometry": {
        "type": "Point",
        "coordinates": [-2.9563311, 53.4738148]
      }
    },
    {
      "type": "Feature",
      "properties": {
        "id": "IT387",
        "name": "Airasca",
        "type": "rail",
        "importance": 4
      },
      "geometry": {
        "type": "Point",
        "coordinates": [7.483395, 44.927944]
      }
    },
    {
      "type": "Feature",
      "properties": {
        "id": "UK9695",
        "name": "Airbles",
        "type": "rail",
        "importance": 4
      },
      "geometry": {
        "type": "Point",
        "coordinates": [-3.9946997, 55.7820658]
      }
    },
    {
      "type": "Feature",
      "properties": {
        "id": "UK9759",
        "name": "Airdrie",
        "type": "rail",
        "importance": 4
      },
      "geometry": {
        "type": "Point",
        "coordinates": [-3.9822547, 55.8640839]
      }
    },
    {
      "type": "Feature",
      "properties": {
        "id": "IT189",
        "name": "Airole",
        "type": "rail",
        "importance": 4
      },
      "geometry": {
        "type": "Point",
        "coordinates": [7.552975, 43.870478]
      }
    },
    {
      "type": "Feature",
      "properties": {
        "id": "CH05201",
        "name": "Airolo",
        "type": "rail",
        "importance": 4
      },
      "geometry": {
        "type": "Point",
        "coordinates": [8.60862, 46.527526]
      }
    },
    {
      "type": "Feature",
      "properties": {
        "id": "UKL002",
        "name": "Airport (Newcastle)",
        "type": "light",
        "importance": 4
      },
      "geometry": {
        "type": "Point",
        "coordinates": [-1.7110967, 55.0356373]
      }
    },
    {
      "type": "Feature",
      "properties": {
        "id": "IT388",
        "name": "Airuno",
        "type": "rail",
        "importance": 4
      },
      "geometry": {
        "type": "Point",
        "coordinates": [9.422322, 45.755491]
      }
    },
    {
      "type": "Feature",
      "properties": {
        "id": "BE74583",
        "name": "Aiseau",
        "type": "rail",
        "importance": 4
      },
      "geometry": {
        "type": "Point",
        "coordinates": [4.584552, 50.429529]
      }
    },
    {
      "type": "Feature",
      "properties": {
        "id": "NL049",
        "name": "Akkrum",
        "type": "rail",
        "importance": 4
      },
      "geometry": {
        "type": "Point",
        "coordinates": [5.843611, 53.046391]
      }
    },
    {
      "type": "Feature",
      "properties": {
        "id": "IT389",
        "name": "Ala",
        "type": "rail",
        "importance": 4
      },
      "geometry": {
        "type": "Point",
        "coordinates": [10.996496, 45.7591]
      }
    },
    {
      "type": "Feature",
      "properties": {
        "id": "IT390",
        "name": "Alanno",
        "type": "rail",
        "importance": 4
      },
      "geometry": {
        "type": "Point",
        "coordinates": [14.019411, 42.287264]
      }
    },
    {
      "type": "Feature",
      "properties": {
        "id": "IT190",
        "name": "Alassio",
        "type": "rail",
        "importance": 4
      },
      "geometry": {
        "type": "Point",
        "coordinates": [8.171559, 44.007832]
      }
    },
    {
      "type": "Feature",
      "properties": {
        "id": "FI284",
        "name": "Alavus",
        "type": "rail",
        "importance": 4
      },
      "geometry": {
        "type": "Point",
        "coordinates": [23.600437, 62.617769]
      }
    },
    {
      "type": "Feature",
      "properties": {
        "id": "IT392",
        "name": "Alba",
        "type": "rail",
        "importance": 4
      },
      "geometry": {
        "type": "Point",
        "coordinates": [8.030866, 44.697811]
      }
    },
    {
      "type": "Feature",
      "properties": {
        "id": "IT393",
        "name": "Alba Adriatica-Nereto-Controguerra",
        "type": "rail",
        "importance": 4
      },
      "geometry": {
        "type": "Point",
        "coordinates": [13.917295, 42.83446]
      }
    },
    {
      "type": "Feature",
      "properties": {
        "id": "IT779",
        "name": "Albairate-Vermezzo",
        "type": "rail",
        "importance": 4
      },
      "geometry": {
        "type": "Point",
        "coordinates": [8.958227, 45.404354]
      }
    },
    {
      "type": "Feature",
      "properties": {
        "id": "IT395",
        "name": "Albano Di Lucania",
        "type": "rail",
        "importance": 4
      },
      "geometry": {
        "type": "Point",
        "coordinates": [16.021373, 40.574768]
      }
    },
    {
      "type": "Feature",
      "properties": {
        "id": "IT396",
        "name": "Albano Laziale",
        "type": "rail",
        "importance": 4
      },
      "geometry": {
        "type": "Point",
        "coordinates": [12.658123, 41.726443]
      }
    },
    {
      "type": "Feature",
      "properties": {
        "id": "IT397",
        "name": "Albano S.Alessandro",
        "type": "rail",
        "importance": 4
      },
      "geometry": {
        "type": "Point",
        "coordinates": [9.76759, 45.683]
      }
    },
    {
      "type": "Feature",
      "properties": {
        "id": "IT398",
        "name": "Albanova",
        "type": "rail",
        "importance": 4
      },
      "geometry": {
        "type": "Point",
        "coordinates": [14.128559, 40.996266]
      }
    },
    {
      "type": "Feature",
      "properties": {
        "id": "UK5132",
        "name": "Albany Park",
        "type": "rail",
        "importance": 4
      },
      "geometry": {
        "type": "Point",
        "coordinates": [0.1259653, 51.4353837]
      }
    },
    {
      "type": "Feature",
      "properties": {
        "id": "IT399",
        "name": "Albaredo",
        "type": "rail",
        "importance": 4
      },
      "geometry": {
        "type": "Point",
        "coordinates": [12.015108, 45.670196]
      }
    },
    {
      "type": "Feature",
      "properties": {
        "id": "IT401",
        "name": "Albate-Trecallo",
        "type": "rail",
        "importance": 4
      },
      "geometry": {
        "type": "Point",
        "coordinates": [9.095826, 45.777537]
      }
    },
    {
      "type": "Feature",
      "properties": {
        "id": "IT191",
        "name": "Albenga",
        "type": "rail",
        "importance": 4
      },
      "geometry": {
        "type": "Point",
        "coordinates": [8.2214, 44.047378]
      }
    },
    {
      "type": "Feature",
      "properties": {
        "id": "BEM069",
        "name": "Albert",
        "type": "metro",
        "importance": 4
      },
      "geometry": {
        "type": "Point",
        "coordinates": [4.342566, 50.821541]
      }
    },
    {
      "type": "Feature",
      "properties": {
        "id": "CH04072",
        "name": "Albeuve",
        "type": "rail",
        "importance": 4
      },
      "geometry": {
        "type": "Point",
        "coordinates": [7.05542, 46.51793]
      }
    },
    {
      "type": "Feature",
      "properties": {
        "id": "IT404",
        "name": "Albinia",
        "type": "rail",
        "importance": 4
      },
      "geometry": {
        "type": "Point",
        "coordinates": [11.211509, 42.502251]
      }
    },
    {
      "type": "Feature",
      "properties": {
        "id": "ITL073",
        "name": "Albino",
        "type": "light",
        "importance": 4
      },
      "geometry": {
        "type": "Point",
        "coordinates": [9.798066, 45.757669]
      }
    },
    {
      "type": "Feature",
      "properties": {
        "id": "IT192",
        "name": "Albisola",
        "type": "rail",
        "importance": 4
      },
      "geometry": {
        "type": "Point",
        "coordinates": [8.5121, 44.33469]
      }
    },
    {
      "type": "Feature",
      "properties": {
        "id": "IT405",
        "name": "Albizzate Solbiate Arno",
        "type": "rail",
        "importance": 4
      },
      "geometry": {
        "type": "Point",
        "coordinates": [8.806117, 45.723289]
      }
    },
    {
      "type": "Feature",
      "properties": {
        "id": "IT406",
        "name": "Albonese",
        "type": "rail",
        "importance": 4
      },
      "geometry": {
        "type": "Point",
        "coordinates": [8.714606, 45.297792]
      }
    },
    {
      "type": "Feature",
      "properties": {
        "id": "UK4614",
        "name": "Albrighton",
        "type": "rail",
        "importance": 4
      },
      "geometry": {
        "type": "Point",
        "coordinates": [-2.2692137, 52.6382346]
      }
    },
    {
      "type": "Feature",
      "properties": {
        "id": "IT407",
        "name": "Albuzzano",
        "type": "rail",
        "importance": 4
      },
      "geometry": {
        "type": "Point",
        "coordinates": [9.26174, 45.17238]
      }
    },
    {
      "type": "Feature",
      "properties": {
        "id": "IT409",
        "name": "Alcamo Diramazione",
        "type": "rail",
        "importance": 4
      },
      "geometry": {
        "type": "Point",
        "coordinates": [12.915923, 37.978682]
      }
    },
    {
      "type": "Feature",
      "properties": {
        "id": "IT410",
        "name": "Alcantara",
        "type": "rail",
        "importance": 4
      },
      "geometry": {
        "type": "Point",
        "coordinates": [15.251161, 37.821454]
      }
    },
    {
      "type": "Feature",
      "properties": {
        "id": "UK2760",
        "name": "Alderley Edge",
        "type": "rail",
        "importance": 4
      },
      "geometry": {
        "type": "Point",
        "coordinates": [-2.2366228, 53.3038625]
      }
    },
    {
      "type": "Feature",
      "properties": {
        "id": "UK3145",
        "name": "Aldermaston",
        "type": "rail",
        "importance": 4
      },
      "geometry": {
        "type": "Point",
        "coordinates": [-1.1367025, 51.4022099]
      }
    },
    {
      "type": "Feature",
      "properties": {
        "id": "UK5623",
        "name": "Aldershot",
        "type": "rail",
        "importance": 4
      },
      "geometry": {
        "type": "Point",
        "coordinates": [-0.7599088, 51.2462832]
      }
    },
    {
      "type": "Feature",
      "properties": {
        "id": "UKM002",
        "name": "Aldgate",
        "type": "metro",
        "importance": 4
      },
      "geometry": {
        "type": "Point",
        "coordinates": [-0.0757186, 51.5142477]
      }
    },
    {
      "type": "Feature",
      "properties": {
        "id": "UKM003",
        "name": "Aldgate East",
        "type": "metro",
        "importance": 4
      },
      "geometry": {
        "type": "Point",
        "coordinates": [-0.070839, 51.5156185]
      }
    },
    {
      "type": "Feature",
      "properties": {
        "id": "UK5280",
        "name": "Aldrington",
        "type": "rail",
        "importance": 4
      },
      "geometry": {
        "type": "Point",
        "coordinates": [-0.1817423, 50.8363558]
      }
    },
    {
      "type": "Feature",
      "properties": {
        "id": "IT193",
        "name": "Alessandria",
        "type": "rail",
        "importance": 3
      },
      "geometry": {
        "type": "Point",
        "coordinates": [8.607571, 44.908807]
      }
    },
    {
      "type": "Feature",
      "properties": {
        "id": "ITM093",
        "name": "Alessandrino (Roma)",
        "type": "metro",
        "importance": 4
      },
      "geometry": {
        "type": "Point",
        "coordinates": [12.57883, 41.87129]
      }
    },
    {
      "type": "Feature",
      "properties": {
        "id": "ITL063",
        "name": "Alessi",
        "type": "light",
        "importance": 4
      },
      "geometry": {
        "type": "Point",
        "coordinates": [12.534709, 41.882735]
      }
    },
    {
      "type": "Feature",
      "properties": {
        "id": "NLM001",
        "name": "Alexander",
        "type": "metro",
        "importance": 4
      },
      "geometry": {
        "type": "Point",
        "coordinates": [4.55191, 51.951428]
      }
    },
    {
      "type": "Feature",
      "properties": {
        "id": "UK6025",
        "name": "Alexandra Palace",
        "type": "rail",
        "importance": 4
      },
      "geometry": {
        "type": "Point",
        "coordinates": [-0.1206625, 51.5982024]
      }
    },
    {
      "type": "Feature",
      "properties": {
        "id": "UK9905",
        "name": "Alexandra Parade",
        "type": "rail",
        "importance": 4
      },
      "geometry": {
        "type": "Point",
        "coordinates": [-4.2106693, 55.863615]
      }
    },
    {
      "type": "Feature",
      "properties": {
        "id": "UK9861",
        "name": "Alexandria",
        "type": "rail",
        "importance": 4
      },
      "geometry": {
        "type": "Point",
        "coordinates": [-4.5773243, 55.9852719]
      }
    },
    {
      "type": "Feature",
      "properties": {
        "id": "ITL102",
        "name": "Alfa Lancia 2",
        "type": "light",
        "importance": 4
      },
      "geometry": {
        "type": "Point",
        "coordinates": [14.401173, 40.925815]
      }
    },
    {
      "type": "Feature",
      "properties": {
        "id": "ITL101",
        "name": "Alfa Lancia 4",
        "type": "light",
        "importance": 4
      },
      "geometry": {
        "type": "Point",
        "coordinates": [14.399987, 40.930246]
      }
    },
    {
      "type": "Feature",
      "properties": {
        "id": "IT411",
        "name": "Alfedena-Scontrone",
        "type": "rail",
        "importance": 4
      },
      "geometry": {
        "type": "Point",
        "coordinates": [14.045086, 41.738518]
      }
    },
    {
      "type": "Feature",
      "properties": {
        "id": "IT412",
        "name": "Alfonsine",
        "type": "rail",
        "importance": 4
      },
      "geometry": {
        "type": "Point",
        "coordinates": [12.039155, 44.512364]
      }
    },
    {
      "type": "Feature",
      "properties": {
        "id": "UK1805",
        "name": "Alfreton",
        "type": "rail",
        "importance": 4
      },
      "geometry": {
        "type": "Point",
        "coordinates": [-1.3698401, 53.1010582]
      }
    },
    {
      "type": "Feature",
      "properties": {
        "id": "IT413",
        "name": "Ali' Terme",
        "type": "rail",
        "importance": 4
      },
      "geometry": {
        "type": "Point",
        "coordinates": [15.423676, 38.005116]
      }
    },
    {
      "type": "Feature",
      "properties": {
        "id": "IT414",
        "name": "Alice Belcolle",
        "type": "rail",
        "importance": 4
      },
      "geometry": {
        "type": "Point",
        "coordinates": [8.440083, 44.722643]
      }
    },
    {
      "type": "Feature",
      "properties": {
        "id": "BE31039",
        "name": "Alken",
        "type": "rail",
        "importance": 4
      },
      "geometry": {
        "type": "Point",
        "coordinates": [5.292866, 50.886837]
      }
    },
    {
      "type": "Feature",
      "properties": {
        "id": "NL050",
        "name": "Alkmaar",
        "type": "rail",
        "importance": 4
      },
      "geometry": {
        "type": "Point",
        "coordinates": [4.739722, 52.637779]
      }
    },
    {
      "type": "Feature",
      "properties": {
        "id": "NL052",
        "name": "Alkmaar Noord",
        "type": "rail",
        "importance": 4
      },
      "geometry": {
        "type": "Point",
        "coordinates": [4.764167, 52.64389]
      }
    },
    {
      "type": "Feature",
      "properties": {
        "id": "UKL003",
        "name": "All Saints",
        "type": "light",
        "importance": 4
      },
      "geometry": {
        "type": "Point",
        "coordinates": [-0.0130551, 51.5108398]
      }
    },
    {
      "type": "Feature",
      "properties": {
        "id": "CH01035",
        "name": "Allaman",
        "type": "rail",
        "importance": 4
      },
      "geometry": {
        "type": "Point",
        "coordinates": [6.399697, 46.475754]
      }
    },
    {
      "type": "Feature",
      "properties": {
        "id": "CH00186",
        "name": "Alle",
        "type": "rail",
        "importance": 4
      },
      "geometry": {
        "type": "Point",
        "coordinates": [7.128249, 47.424229]
      }
    },
    {
      "type": "Feature",
      "properties": {
        "id": "UK7520",
        "name": "Allens West",
        "type": "rail",
        "importance": 4
      },
      "geometry": {
        "type": "Point",
        "coordinates": [-1.3616516, 54.524557]
      }
    },
    {
      "type": "Feature",
      "properties": {
        "id": "IT415",
        "name": "Allerona-Castel Viscardo",
        "type": "rail",
        "importance": 4
      },
      "geometry": {
        "type": "Point",
        "coordinates": [12.035633, 42.784702]
      }
    },
    {
      "type": "Feature",
      "properties": {
        "id": "CH01378",
        "name": "Allières",
        "type": "rail",
        "importance": 4
      },
      "geometry": {
        "type": "Point",
        "coordinates": [7.00789, 46.46982]
      }
    },
    {
      "type": "Feature",
      "properties": {
        "id": "UK9883",
        "name": "Alloa",
        "type": "rail",
        "importance": 4
      },
      "geometry": {
        "type": "Point",
        "coordinates": [-3.7883249, 56.1179388]
      }
    },
    {
      "type": "Feature",
      "properties": {
        "id": "BEM055",
        "name": "Alma",
        "type": "metro",
        "importance": 4
      },
      "geometry": {
        "type": "Point",
        "coordinates": [4.452855, 50.849691]
      }
    },
    {
      "type": "Feature",
      "properties": {
        "id": "NL051",
        "name": "Almelo",
        "type": "rail",
        "importance": 4
      },
      "geometry": {
        "type": "Point",
        "coordinates": [6.653889, 52.358055]
      }
    },
    {
      "type": "Feature",
      "properties": {
        "id": "NL520",
        "name": "Almelo de Riet",
        "type": "rail",
        "importance": 4
      },
      "geometry": {
        "type": "Point",
        "coordinates": [6.666667, 52.341946]
      }
    },
    {
      "type": "Feature",
      "properties": {
        "id": "NL081",
        "name": "Almere Buiten",
        "type": "rail",
        "importance": 4
      },
      "geometry": {
        "type": "Point",
        "coordinates": [5.278056, 52.394165]
      }
    },
    {
      "type": "Feature",
      "properties": {
        "id": "NL080",
        "name": "Almere Centrum",
        "type": "rail",
        "importance": 4
      },
      "geometry": {
        "type": "Point",
        "coordinates": [5.21764, 52.37503]
      }
    },
    {
      "type": "Feature",
      "properties": {
        "id": "NL082",
        "name": "Almere Muziekwijk",
        "type": "rail",
        "importance": 4
      },
      "geometry": {
        "type": "Point",
        "coordinates": [5.190278, 52.3675]
      }
    },
    {
      "type": "Feature",
      "properties": {
        "id": "NL226",
        "name": "Almere Oostvaarders",
        "type": "rail",
        "importance": 4
      },
      "geometry": {
        "type": "Point",
        "coordinates": [5.300556, 52.403332]
      }
    },
    {
      "type": "Feature",
      "properties": {
        "id": "NL104",
        "name": "Almere Parkwijk",
        "type": "rail",
        "importance": 4
      },
      "geometry": {
        "type": "Point",
        "coordinates": [5.244722, 52.376667]
      }
    },
    {
      "type": "Feature",
      "properties": {
        "id": "NL450",
        "name": "Almere Poort",
        "type": "rail",
        "importance": 4
      },
      "geometry": {
        "type": "Point",
        "coordinates": [5.151944, 52.342778]
      }
    },
    {
      "type": "Feature",
      "properties": {
        "id": "UK8605",
        "name": "Alness",
        "type": "rail",
        "importance": 4
      },
      "geometry": {
        "type": "Point",
        "coordinates": [-4.2499451, 57.6944251]
      }
    },
    {
      "type": "Feature",
      "properties": {
        "id": "UK7787",
        "name": "Alnmouth",
        "type": "rail",
        "importance": 4
      },
      "geometry": {
        "type": "Point",
        "coordinates": [-1.6367716, 55.392793]
      }
    },
    {
      "type": "Feature",
      "properties": {
        "id": "CH09357",
        "name": "Alp Grüm",
        "type": "rail",
        "importance": 4
      },
      "geometry": {
        "type": "Point",
        "coordinates": [10.031235, 46.374507]
      }
    },
    {
      "type": "Feature",
      "properties": {
        "id": "UKM004",
        "name": "Alperton",
        "type": "metro",
        "importance": 4
      },
      "geometry": {
        "type": "Point",
        "coordinates": [-0.3000963, 51.5408036]
      }
    },
    {
      "type": "Feature",
      "properties": {
        "id": "NL053",
        "name": "Alphen a/d Rijn",
        "type": "rail",
        "importance": 4
      },
      "geometry": {
        "type": "Point",
        "coordinates": [4.657778, 52.124443]
      }
    },
    {
      "type": "Feature",
      "properties": {
        "id": "IT416",
        "name": "Alpignano",
        "type": "rail",
        "importance": 4
      },
      "geometry": {
        "type": "Point",
        "coordinates": [7.523874, 45.091278]
      }
    },
    {
      "type": "Feature",
      "properties": {
        "id": "CH08316",
        "name": "Alpnach Dorf",
        "type": "rail",
        "importance": 4
      },
      "geometry": {
        "type": "Point",
        "coordinates": [8.275345, 46.940591]
      }
    },
    {
      "type": "Feature",
      "properties": {
        "id": "CH08317",
        "name": "Alpnachstad",
        "type": "rail",
        "importance": 4
      },
      "geometry": {
        "type": "Point",
        "coordinates": [8.277848, 46.955042]
      }
    },
    {
      "type": "Feature",
      "properties": {
        "id": "UK6847",
        "name": "Alresford (Essex)",
        "type": "rail",
        "importance": 4
      },
      "geometry": {
        "type": "Point",
        "coordinates": [0.9970365, 51.8539985]
      }
    },
    {
      "type": "Feature",
      "properties": {
        "id": "UK1223",
        "name": "Alsager",
        "type": "rail",
        "importance": 4
      },
      "geometry": {
        "type": "Point",
        "coordinates": [-2.2988432, 53.0930252]
      }
    },
    {
      "type": "Feature",
      "properties": {
        "id": "IT418",
        "name": "Altamura",
        "type": "rail",
        "importance": 4
      },
      "geometry": {
        "type": "Point",
        "coordinates": [16.551667, 40.838]
      }
    },
    {
      "type": "Feature",
      "properties": {
        "id": "IT196",
        "name": "Altare",
        "type": "rail",
        "importance": 4
      },
      "geometry": {
        "type": "Point",
        "coordinates": [8.332753, 44.33617]
      }
    },
    {
      "type": "Feature",
      "properties": {
        "id": "IT419",
        "name": "Altavilla Irpina",
        "type": "rail",
        "importance": 4
      },
      "geometry": {
        "type": "Point",
        "coordinates": [14.784842, 41.015163]
      }
    },
    {
      "type": "Feature",
      "properties": {
        "id": "IT420",
        "name": "Altavilla Milicia",
        "type": "rail",
        "importance": 4
      },
      "geometry": {
        "type": "Point",
        "coordinates": [13.554273, 38.048194]
      }
    },
    {
      "type": "Feature",
      "properties": {
        "id": "IT421",
        "name": "Altavilla Tavernelle",
        "type": "rail",
        "importance": 4
      },
      "geometry": {
        "type": "Point",
        "coordinates": [11.454374, 45.511801]
      }
    },
    {
      "type": "Feature",
      "properties": {
        "id": "CH05113",
        "name": "Altdorf UR",
        "type": "rail",
        "importance": 4
      },
      "geometry": {
        "type": "Point",
        "coordinates": [8.631575, 46.875739]
      }
    },
    {
      "type": "Feature",
      "properties": {
        "id": "CH03211",
        "name": "Altendorf",
        "type": "rail",
        "importance": 4
      },
      "geometry": {
        "type": "Point",
        "coordinates": [8.822906, 47.193967]
      }
    },
    {
      "type": "Feature",
      "properties": {
        "id": "CH06389",
        "name": "Alter Zoll",
        "type": "rail",
        "importance": 4
      },
      "geometry": {
        "type": "Point",
        "coordinates": [9.522039, 47.368581]
      }
    },
    {
      "type": "Feature",
      "properties": {
        "id": "UK6869",
        "name": "Althorne (Essex)",
        "type": "rail",
        "importance": 4
      },
      "geometry": {
        "type": "Point",
        "coordinates": [0.7517966, 51.6477849]
      }
    },
    {
      "type": "Feature",
      "properties": {
        "id": "UK6532",
        "name": "Althorpe",
        "type": "rail",
        "importance": 4
      },
      "geometry": {
        "type": "Point",
        "coordinates": [-0.732955, 53.5855457]
      }
    },
    {
      "type": "Feature",
      "properties": {
        "id": "CH03292",
        "name": "Altmatt",
        "type": "rail",
        "importance": 4
      },
      "geometry": {
        "type": "Point",
        "coordinates": [8.696147, 47.131652]
      }
    },
    {
      "type": "Feature",
      "properties": {
        "id": "CH06125",
        "name": "Altnau",
        "type": "rail",
        "importance": 4
      },
      "geometry": {
        "type": "Point",
        "coordinates": [9.265918, 47.621368]
      }
    },
    {
      "type": "Feature",
      "properties": {
        "id": "UK5544",
        "name": "Alton",
        "type": "rail",
        "importance": 4
      },
      "geometry": {
        "type": "Point",
        "coordinates": [-0.9671299, 51.1518972]
      }
    },
    {
      "type": "Feature",
      "properties": {
        "id": "IT422",
        "name": "Altopascio",
        "type": "rail",
        "importance": 4
      },
      "geometry": {
        "type": "Point",
        "coordinates": [10.672758, 43.817416]
      }
    },
    {
      "type": "Feature",
      "properties": {
        "id": "UK2806",
        "name": "Altrincham",
        "type": "rail",
        "importance": 4
      },
      "geometry": {
        "type": "Point",
        "coordinates": [-2.3470824, 53.3876561]
      }
    },
    {
      "type": "Feature",
      "properties": {
        "id": "CH06319",
        "name": "Altstätten SG",
        "type": "rail",
        "importance": 4
      },
      "geometry": {
        "type": "Point",
        "coordinates": [9.55652, 47.374235]
      }
    },
    {
      "type": "Feature",
      "properties": {
        "id": "CH06379",
        "name": "Altstätten Stadt",
        "type": "rail",
        "importance": 4
      },
      "geometry": {
        "type": "Point",
        "coordinates": [9.537492, 47.376836]
      }
    },
    {
      "type": "Feature",
      "properties": {
        "id": "CH09194",
        "name": "Alvaneu",
        "type": "rail",
        "importance": 4
      },
      "geometry": {
        "type": "Point",
        "coordinates": [9.651366, 46.671062]
      }
    },
    {
      "type": "Feature",
      "properties": {
        "id": "UK1198",
        "name": "Alvechurch",
        "type": "rail",
        "importance": 4
      },
      "geometry": {
        "type": "Point",
        "coordinates": [-1.9679677, 52.3468326]
      }
    },
    {
      "type": "Feature",
      "properties": {
        "id": "IT423",
        "name": "Alviano",
        "type": "rail",
        "importance": 4
      },
      "geometry": {
        "type": "Point",
        "coordinates": [12.25959, 42.591816]
      }
    },
    {
      "type": "Feature",
      "properties": {
        "id": "ITL079",
        "name": "Alzano Centro",
        "type": "light",
        "importance": 4
      },
      "geometry": {
        "type": "Point",
        "coordinates": [9.728993, 45.730643]
      }
    },
    {
      "type": "Feature",
      "properties": {
        "id": "ITL078",
        "name": "Alzano Sopra",
        "type": "light",
        "importance": 4
      },
      "geometry": {
        "type": "Point",
        "coordinates": [9.739848, 45.734916]
      }
    },
    {
      "type": "Feature",
      "properties": {
        "id": "IT8",
        "name": "Amantea",
        "type": "rail",
        "importance": 4
      },
      "geometry": {
        "type": "Point",
        "coordinates": [16.068673, 39.134384]
      }
    },
    {
      "type": "Feature",
      "properties": {
        "id": "BE43331",
        "name": "Amay",
        "type": "rail",
        "importance": 4
      },
      "geometry": {
        "type": "Point",
        "coordinates": [5.32049, 50.546011]
      }
    },
    {
      "type": "Feature",
      "properties": {
        "id": "NLM002",
        "name": "Ambachtsland",
        "type": "metro",
        "importance": 4
      },
      "geometry": {
        "type": "Point",
        "coordinates": [4.570267, 51.965766]
      }
    },
    {
      "type": "Feature",
      "properties": {
        "id": "UK1678",
        "name": "Ambergate",
        "type": "rail",
        "importance": 4
      },
      "geometry": {
        "type": "Point",
        "coordinates": [-1.4808654, 53.0604187]
      }
    },
    {
      "type": "Feature",
      "properties": {
        "id": "UK5250",
        "name": "Amberley",
        "type": "rail",
        "importance": 4
      },
      "geometry": {
        "type": "Point",
        "coordinates": [-0.5419326, 50.8966534]
      }
    },
    {
      "type": "Feature",
      "properties": {
        "id": "IT424",
        "name": "Ambivere Mapello",
        "type": "rail",
        "importance": 4
      },
      "geometry": {
        "type": "Point",
        "coordinates": [9.55022, 45.72215]
      }
    },
    {
      "type": "Feature",
      "properties": {
        "id": "CH05202",
        "name": "Ambrì-Piotta",
        "type": "rail",
        "importance": 4
      },
      "geometry": {
        "type": "Point",
        "coordinates": [8.689928, 46.510764]
      }
    },
    {
      "type": "Feature",
      "properties": {
        "id": "ITM231",
        "name": "Amendola (Milano)",
        "type": "metro",
        "importance": 4
      },
      "geometry": {
        "type": "Point",
        "coordinates": [9.150996, 45.473697]
      }
    },
    {
      "type": "Feature",
      "properties": {
        "id": "IT9",
        "name": "Amendolara Oriolo",
        "type": "rail",
        "importance": 4
      },
      "geometry": {
        "type": "Point",
        "coordinates": [16.602897, 39.933823]
      }
    },
    {
      "type": "Feature",
      "properties": {
        "id": "NL055",
        "name": "Amersfoort Centraal",
        "type": "rail",
        "importance": 3
      },
      "geometry": {
        "type": "Point",
        "coordinates": [5.370555, 52.153889]
      }
    },
    {
      "type": "Feature",
      "properties": {
        "id": "NL054",
        "name": "Amersfoort Schothorst",
        "type": "rail",
        "importance": 4
      },
      "geometry": {
        "type": "Point",
        "coordinates": [5.403889, 52.174822]
      }
    },
    {
      "type": "Feature",
      "properties": {
        "id": "NL228",
        "name": "Amersfoort Vathorst",
        "type": "rail",
        "importance": 4
      },
      "geometry": {
        "type": "Point",
        "coordinates": [5.433889, 52.19278]
      }
    },
    {
      "type": "Feature",
      "properties": {
        "id": "UKM005",
        "name": "Amersham",
        "type": "metro",
        "importance": 4
      },
      "geometry": {
        "type": "Point",
        "coordinates": [-0.6073643, 51.6740875]
      }
    },
    {
      "type": "Feature",
      "properties": {
        "id": "UK4236",
        "name": "Ammanford",
        "type": "rail",
        "importance": 4
      },
      "geometry": {
        "type": "Point",
        "coordinates": [-3.996828, 51.7955509]
      }
    },
    {
      "type": "Feature",
      "properties": {
        "id": "IT427",
        "name": "Amorosi Melizzano",
        "type": "rail",
        "importance": 4
      },
      "geometry": {
        "type": "Point",
        "coordinates": [14.47916, 41.192896]
      }
    },
    {
      "type": "Feature",
      "properties": {
        "id": "BE43323",
        "name": "Ampsin",
        "type": "rail",
        "importance": 4
      },
      "geometry": {
        "type": "Point",
        "coordinates": [5.289729, 50.539215]
      }
    },
    {
      "type": "Feature",
      "properties": {
        "id": "CH06109",
        "name": "Amriswil",
        "type": "rail",
        "importance": 4
      },
      "geometry": {
        "type": "Point",
        "coordinates": [9.302227, 47.55045]
      }
    },
    {
      "type": "Feature",
      "properties": {
        "id": "NLM003",
        "name": "Amstelveenseweg",
        "type": "metro",
        "importance": 4
      },
      "geometry": {
        "type": "Point",
        "coordinates": [4.857577, 52.338403]
      }
    },
    {
      "type": "Feature",
      "properties": {
        "id": "NL057",
        "name": "Amsterdam Amstel",
        "type": "rail",
        "importance": 4
      },
      "geometry": {
        "type": "Point",
        "coordinates": [4.917778, 52.346668]
      }
    },
    {
      "type": "Feature",
      "properties": {
        "id": "NLM004",
        "name": "Amsterdam Amstel",
        "type": "metro",
        "importance": 4
      },
      "geometry": {
        "type": "Point",
        "coordinates": [4.917557, 52.346466]
      }
    },
    {
      "type": "Feature",
      "properties": {
        "id": "NL074",
        "name": "Amsterdam Bijlmer ArenA",
        "type": "rail",
        "importance": 4
      },
      "geometry": {
        "type": "Point",
        "coordinates": [4.946944, 52.312222]
      }
    },
    {
      "type": "Feature",
      "properties": {
        "id": "NLM005",
        "name": "Amsterdam Bijlmer ArenA",
        "type": "metro",
        "importance": 4
      },
      "geometry": {
        "type": "Point",
        "coordinates": [4.947088, 52.312245]
      }
    },
    {
      "type": "Feature",
      "properties": {
        "id": "NL058",
        "name": "Amsterdam Centraal",
        "type": "rail",
        "importance": 1
      },
      "geometry": {
        "type": "Point",
        "coordinates": [4.900278, 52.378887]
      }
    },
    {
      "type": "Feature",
      "properties": {
        "id": "NL231",
        "name": "Amsterdam Holendrecht",
        "type": "rail",
        "importance": 4
      },
      "geometry": {
        "type": "Point",
        "coordinates": [4.95972, 52.29844]
      }
    },
    {
      "type": "Feature",
      "properties": {
        "id": "NLM006",
        "name": "Amsterdam Holendrecht",
        "type": "metro",
        "importance": 4
      },
      "geometry": {
        "type": "Point",
        "coordinates": [4.960171, 52.297989]
      }
    },
    {
      "type": "Feature",
      "properties": {
        "id": "NL079",
        "name": "Amsterdam Lelylaan",
        "type": "rail",
        "importance": 4
      },
      "geometry": {
        "type": "Point",
        "coordinates": [4.833889, 52.357777]
      }
    },
    {
      "type": "Feature",
      "properties": {
        "id": "NLM007",
        "name": "Amsterdam Lelylaan",
        "type": "metro",
        "importance": 4
      },
      "geometry": {
        "type": "Point",
        "coordinates": [4.834027, 52.357837]
      }
    },
    {
      "type": "Feature",
      "properties": {
        "id": "NL060",
        "name": "Amsterdam Muiderpoort",
        "type": "rail",
        "importance": 4
      },
      "geometry": {
        "type": "Point",
        "coordinates": [4.931111, 52.360554]
      }
    },
    {
      "type": "Feature",
      "properties": {
        "id": "NL056",
        "name": "Amsterdam RAI",
        "type": "rail",
        "importance": 4
      },
      "geometry": {
        "type": "Point",
        "coordinates": [4.890278, 52.337223]
      }
    },
    {
      "type": "Feature",
      "properties": {
        "id": "NL235",
        "name": "Amsterdam Science Park",
        "type": "rail",
        "importance": 4
      },
      "geometry": {
        "type": "Point",
        "coordinates": [4.94855, 52.35274]
      }
    },
    {
      "type": "Feature",
      "properties": {
        "id": "NL059",
        "name": "Amsterdam Sloterdijk",
        "type": "rail",
        "importance": 4
      },
      "geometry": {
        "type": "Point",
        "coordinates": [4.837778, 52.388889]
      }
    },
    {
      "type": "Feature",
      "properties": {
        "id": "NL061",
        "name": "Amsterdam Zuid",
        "type": "rail",
        "importance": 4
      },
      "geometry": {
        "type": "Point",
        "coordinates": [4.872356, 52.338889]
      }
    },
    {
      "type": "Feature",
      "properties": {
        "id": "IT428",
        "name": "Anagni-Fiuggi",
        "type": "rail",
        "importance": 4
      },
      "geometry": {
        "type": "Point",
        "coordinates": [13.096092, 41.710463]
      }
    },
    {
      "type": "Feature",
      "properties": {
        "id": "ITM324",
        "name": "Anagnina (Roma)",
        "type": "metro",
        "importance": 4
      },
      "geometry": {
        "type": "Point",
        "coordinates": [12.58609, 41.84279]
      }
    },
    {
      "type": "Feature",
      "properties": {
        "id": "UK6358",
        "name": "Ancaster",
        "type": "rail",
        "importance": 4
      },
      "geometry": {
        "type": "Point",
        "coordinates": [-0.5353535, 52.987708]
      }
    },
    {
      "type": "Feature",
      "properties": {
        "id": "IT429",
        "name": "Ancona",
        "type": "rail",
        "importance": 2
      },
      "geometry": {
        "type": "Point",
        "coordinates": [13.497719, 43.607447]
      }
    },
    {
      "type": "Feature",
      "properties": {
        "id": "IT1096",
        "name": "Ancona Stadio",
        "type": "rail",
        "importance": 4
      },
      "geometry": {
        "type": "Point",
        "coordinates": [13.520808, 43.566416]
      }
    },
    {
      "type": "Feature",
      "properties": {
        "id": "IT3473",
        "name": "Ancona Torrette",
        "type": "rail",
        "importance": 4
      },
      "geometry": {
        "type": "Point",
        "coordinates": [13.455777, 43.609936]
      }
    },
    {
      "type": "Feature",
      "properties": {
        "id": "IT3365",
        "name": "Anconetta",
        "type": "rail",
        "importance": 4
      },
      "geometry": {
        "type": "Point",
        "coordinates": [11.567805, 45.565122]
      }
    },
    {
      "type": "Feature",
      "properties": {
        "id": "CH06047",
        "name": "Andelfingen",
        "type": "rail",
        "importance": 4
      },
      "geometry": {
        "type": "Point",
        "coordinates": [8.678002, 47.593766]
      }
    },
    {
      "type": "Feature",
      "properties": {
        "id": "BE63404",
        "name": "Andenne",
        "type": "rail",
        "importance": 4
      },
      "geometry": {
        "type": "Point",
        "coordinates": [5.094699, 50.496759]
      }
    },
    {
      "type": "Feature",
      "properties": {
        "id": "BE11940",
        "name": "Anderlecht",
        "type": "rail",
        "importance": 4
      },
      "geometry": {
        "type": "Point",
        "coordinates": [4.2918, 50.8179]
      }
    },
    {
      "type": "Feature",
      "properties": {
        "id": "CH05165",
        "name": "Andermatt",
        "type": "rail",
        "importance": 4
      },
      "geometry": {
        "type": "Point",
        "coordinates": [8.59328, 46.63689]
      }
    },
    {
      "type": "Feature",
      "properties": {
        "id": "UK9965",
        "name": "Anderston",
        "type": "rail",
        "importance": 4
      },
      "geometry": {
        "type": "Point",
        "coordinates": [-4.2702586, 55.8597738]
      }
    },
    {
      "type": "Feature",
      "properties": {
        "id": "IT4503",
        "name": "Andora",
        "type": "rail",
        "importance": 4
      },
      "geometry": {
        "type": "Point",
        "coordinates": [8.13888, 43.960409]
      }
    },
    {
      "type": "Feature",
      "properties": {
        "id": "UK5510",
        "name": "Andover",
        "type": "rail",
        "importance": 4
      },
      "geometry": {
        "type": "Point",
        "coordinates": [-1.4927767, 51.211559]
      }
    },
    {
      "type": "Feature",
      "properties": {
        "id": "UK5397",
        "name": "Anerley",
        "type": "rail",
        "importance": 4
      },
      "geometry": {
        "type": "Point",
        "coordinates": [-0.065494, 51.4125768]
      }
    },
    {
      "type": "Feature",
      "properties": {
        "id": "UKM006",
        "name": "Angel",
        "type": "metro",
        "importance": 4
      },
      "geometry": {
        "type": "Point",
        "coordinates": [-0.1060356, 51.5324874]
      }
    },
    {
      "type": "Feature",
      "properties": {
        "id": "BE42002",
        "name": "Angleur",
        "type": "rail",
        "importance": 4
      },
      "geometry": {
        "type": "Point",
        "coordinates": [5.599695, 50.613152]
      }
    },
    {
      "type": "Feature",
      "properties": {
        "id": "UK5267",
        "name": "Angmering",
        "type": "rail",
        "importance": 4
      },
      "geometry": {
        "type": "Point",
        "coordinates": [-0.4881271, 50.8165151]
      }
    },
    {
      "type": "Feature",
      "properties": {
        "id": "IT431",
        "name": "Angri",
        "type": "rail",
        "importance": 4
      },
      "geometry": {
        "type": "Point",
        "coordinates": [14.575426, 40.746313]
      }
    },
    {
      "type": "Feature",
      "properties": {
        "id": "IT432",
        "name": "Anguillara",
        "type": "rail",
        "importance": 4
      },
      "geometry": {
        "type": "Point",
        "coordinates": [12.293355, 42.067217]
      }
    },
    {
      "type": "Feature",
      "properties": {
        "id": "NL065",
        "name": "Anna Paulowna",
        "type": "rail",
        "importance": 4
      },
      "geometry": {
        "type": "Point",
        "coordinates": [4.811111, 52.867222]
      }
    },
    {
      "type": "Feature",
      "properties": {
        "id": "IT1310",
        "name": "Anna'",
        "type": "rail",
        "importance": 4
      },
      "geometry": {
        "type": "Point",
        "coordinates": [15.748079, 37.925605]
      }
    },
    {
      "type": "Feature",
      "properties": {
        "id": "UK9451",
        "name": "Annan",
        "type": "rail",
        "importance": 4
      },
      "geometry": {
        "type": "Point",
        "coordinates": [-3.2628103, 54.9835121]
      }
    },
    {
      "type": "Feature",
      "properties": {
        "id": "BEM063",
        "name": "Anneessens",
        "type": "metro",
        "importance": 4
      },
      "geometry": {
        "type": "Point",
        "coordinates": [4.345455, 50.844301]
      }
    },
    {
      "type": "Feature",
      "properties": {
        "id": "UK9972",
        "name": "Anniesland",
        "type": "rail",
        "importance": 4
      },
      "geometry": {
        "type": "Point",
        "coordinates": [-4.3215698, 55.8899452]
      }
    },
    {
      "type": "Feature",
      "properties": {
        "id": "IT3466",
        "name": "Annone Veneto",
        "type": "rail",
        "importance": 4
      },
      "geometry": {
        "type": "Point",
        "coordinates": [12.680345, 45.774745]
      }
    },
    {
      "type": "Feature",
      "properties": {
        "id": "BE41202",
        "name": "Ans",
        "type": "rail",
        "importance": 4
      },
      "geometry": {
        "type": "Point",
        "coordinates": [5.509704, 50.661208]
      }
    },
    {
      "type": "Feature",
      "properties": {
        "id": "UK2662",
        "name": "Ansdell & Fairhaven",
        "type": "rail",
        "importance": 4
      },
      "geometry": {
        "type": "Point",
        "coordinates": [-2.993513, 53.741637]
      }
    },
    {
      "type": "Feature",
      "properties": {
        "id": "BE63818",
        "name": "Anseremme",
        "type": "rail",
        "importance": 4
      },
      "geometry": {
        "type": "Point",
        "coordinates": [4.90553, 50.238023]
      }
    },
    {
      "type": "Feature",
      "properties": {
        "id": "IT434",
        "name": "Antignano",
        "type": "rail",
        "importance": 4
      },
      "geometry": {
        "type": "Point",
        "coordinates": [10.329099, 43.495476]
      }
    },
    {
      "type": "Feature",
      "properties": {
        "id": "BE85522",
        "name": "Antoing",
        "type": "rail",
        "importance": 4
      },
      "geometry": {
        "type": "Point",
        "coordinates": [3.451309, 50.569626]
      }
    },
    {
      "type": "Feature",
      "properties": {
        "id": "IT435",
        "name": "Antrodoco Borgo Velino",
        "type": "rail",
        "importance": 4
      },
      "geometry": {
        "type": "Point",
        "coordinates": [13.070861, 42.409964]
      }
    },
    {
      "type": "Feature",
      "properties": {
        "id": "IT436",
        "name": "Antrodoco Centro",
        "type": "rail",
        "importance": 4
      },
      "geometry": {
        "type": "Point",
        "coordinates": [13.076357, 42.415376]
      }
    },
    {
      "type": "Feature",
      "properties": {
        "id": "BE21121",
        "name": "Antwerpen-Berchem",
        "type": "rail",
        "importance": 3
      },
      "geometry": {
        "type": "Point",
        "coordinates": [4.432221, 51.19923]
      }
    },
    {
      "type": "Feature",
      "properties": {
        "id": "BE21006",
        "name": "Antwerpen-Centraal",
        "type": "rail",
        "importance": 1
      },
      "geometry": {
        "type": "Point",
        "coordinates": [4.421101, 51.2172]
      }
    },
    {
      "type": "Feature",
      "properties": {
        "id": "BE21030",
        "name": "Antwerpen-Dam",
        "type": "rail",
        "importance": 4
      },
      "geometry": {
        "type": "Point",
        "coordinates": [4.426238, 51.231991]
      }
    },
    {
      "type": "Feature",
      "properties": {
        "id": "BE21048",
        "name": "Antwerpen-Haven",
        "type": "rail",
        "importance": 4
      },
      "geometry": {
        "type": "Point",
        "coordinates": [4.379086, 51.289968]
      }
    },
    {
      "type": "Feature",
      "properties": {
        "id": "BE21063",
        "name": "Antwerpen-Luchtbal",
        "type": "rail",
        "importance": 4
      },
      "geometry": {
        "type": "Point",
        "coordinates": [4.425029, 51.244132]
      }
    },
    {
      "type": "Feature",
      "properties": {
        "id": "BE21089",
        "name": "Antwerpen-Noorderdokken",
        "type": "rail",
        "importance": 4
      },
      "geometry": {
        "type": "Point",
        "coordinates": [4.427906, 51.261643]
      }
    },
    {
      "type": "Feature",
      "properties": {
        "id": "BE21022",
        "name": "Antwerpen-Oost",
        "type": "rail",
        "importance": 4
      },
      "geometry": {
        "type": "Point",
        "coordinates": [4.436392, 51.207357]
      }
    },
    {
      "type": "Feature",
      "properties": {
        "id": "BE21196",
        "name": "Antwerpen-Zuid",
        "type": "rail",
        "importance": 4
      },
      "geometry": {
        "type": "Point",
        "coordinates": [4.390259, 51.197828]
      }
    },
    {
      "type": "Feature",
      "properties": {
        "id": "IT437",
        "name": "Anversa-Villalago-Scanno",
        "type": "rail",
        "importance": 4
      },
      "geometry": {
        "type": "Point",
        "coordinates": [13.835857, 42.017352]
      }
    },
    {
      "type": "Feature",
      "properties": {
        "id": "IT438",
        "name": "Anzano Del Parco",
        "type": "rail",
        "importance": 4
      },
      "geometry": {
        "type": "Point",
        "coordinates": [9.20268, 45.76505]
      }
    },
    {
      "type": "Feature",
      "properties": {
        "id": "BE92734",
        "name": "Anzegem",
        "type": "rail",
        "importance": 4
      },
      "geometry": {
        "type": "Point",
        "coordinates": [3.495014, 50.826385]
      }
    },
    {
      "type": "Feature",
      "properties": {
        "id": "IT439",
        "name": "Anzio",
        "type": "rail",
        "importance": 4
      },
      "geometry": {
        "type": "Point",
        "coordinates": [12.62936, 41.452068]
      }
    },
    {
      "type": "Feature",
      "properties": {
        "id": "IT440",
        "name": "Anzio Colonia",
        "type": "rail",
        "importance": 4
      },
      "geometry": {
        "type": "Point",
        "coordinates": [12.615936, 41.461801]
      }
    },
    {
      "type": "Feature",
      "properties": {
        "id": "IT441",
        "name": "Anzola Dell'Emilia",
        "type": "rail",
        "importance": 4
      },
      "geometry": {
        "type": "Point",
        "coordinates": [11.196603, 44.550943]
      }
    },
    {
      "type": "Feature",
      "properties": {
        "id": "IT442",
        "name": "Aosta",
        "type": "rail",
        "importance": 3
      },
      "geometry": {
        "type": "Point",
        "coordinates": [7.322313, 45.734316]
      }
    },
    {
      "type": "Feature",
      "properties": {
        "id": "IT3502",
        "name": "Aosta Viale Europa",
        "type": "rail",
        "importance": 4
      },
      "geometry": {
        "type": "Point",
        "coordinates": [7.295942, 45.732544]
      }
    },
    {
      "type": "Feature",
      "properties": {
        "id": "NL066",
        "name": "Apeldoorn",
        "type": "rail",
        "importance": 4
      },
      "geometry": {
        "type": "Point",
        "coordinates": [5.970278, 52.209167]
      }
    },
    {
      "type": "Feature",
      "properties": {
        "id": "NL233",
        "name": "Apeldoorn De Maten",
        "type": "rail",
        "importance": 4
      },
      "geometry": {
        "type": "Point",
        "coordinates": [6.000556, 52.205276]
      }
    },
    {
      "type": "Feature",
      "properties": {
        "id": "NL229",
        "name": "Apeldoorn Osseveld",
        "type": "rail",
        "importance": 4
      },
      "geometry": {
        "type": "Point",
        "coordinates": [6.004445, 52.215279]
      }
    },
    {
      "type": "Feature",
      "properties": {
        "id": "IT443",
        "name": "Apice S.Arcangelo Bonito",
        "type": "rail",
        "importance": 4
      },
      "geometry": {
        "type": "Point",
        "coordinates": [14.918867, 41.140867]
      }
    },
    {
      "type": "Feature",
      "properties": {
        "id": "BE95745",
        "name": "Appelterre",
        "type": "rail",
        "importance": 4
      },
      "geometry": {
        "type": "Point",
        "coordinates": [3.972108, 50.813063]
      }
    },
    {
      "type": "Feature",
      "properties": {
        "id": "CH06286",
        "name": "Appenzell",
        "type": "rail",
        "importance": 4
      },
      "geometry": {
        "type": "Point",
        "coordinates": [9.40953, 47.328535]
      }
    },
    {
      "type": "Feature",
      "properties": {
        "id": "UK8562",
        "name": "Apperley Bridge",
        "type": "rail",
        "importance": 4
      },
      "geometry": {
        "type": "Point",
        "coordinates": [-1.7070712, 53.8420442]
      }
    },
    {
      "type": "Feature",
      "properties": {
        "id": "IT3428",
        "name": "Appiano",
        "type": "rail",
        "importance": 4
      },
      "geometry": {
        "type": "Point",
        "coordinates": [12.438716, 41.911322]
      }
    },
    {
      "type": "Feature",
      "properties": {
        "id": "NL067",
        "name": "Appingedam",
        "type": "rail",
        "importance": 4
      },
      "geometry": {
        "type": "Point",
        "coordinates": [6.861958, 53.325814]
      }
    },
    {
      "type": "Feature",
      "properties": {
        "id": "UK2052",
        "name": "Appleby",
        "type": "rail",
        "importance": 4
      },
      "geometry": {
        "type": "Point",
        "coordinates": [-2.486536, 54.58041]
      }
    },
    {
      "type": "Feature",
      "properties": {
        "id": "UK5003",
        "name": "Appledore (Kent)",
        "type": "rail",
        "importance": 4
      },
      "geometry": {
        "type": "Point",
        "coordinates": [0.8165763, 51.0332869]
      }
    },
    {
      "type": "Feature",
      "properties": {
        "id": "UK3109",
        "name": "Appleford",
        "type": "rail",
        "importance": 4
      },
      "geometry": {
        "type": "Point",
        "coordinates": [-1.2424741, 51.6394882]
      }
    },
    {
      "type": "Feature",
      "properties": {
        "id": "CH01094",
        "name": "Apples",
        "type": "rail",
        "importance": 4
      },
      "geometry": {
        "type": "Point",
        "coordinates": [6.42358, 46.55088]
      }
    },
    {
      "type": "Feature",
      "properties": {
        "id": "UK2396",
        "name": "Appley Bridge",
        "type": "rail",
        "importance": 4
      },
      "geometry": {
        "type": "Point",
        "coordinates": [-2.7195791, 53.578708]
      }
    },
    {
      "type": "Feature",
      "properties": {
        "id": "IT444",
        "name": "Apricena",
        "type": "rail",
        "importance": 4
      },
      "geometry": {
        "type": "Point",
        "coordinates": [15.445426, 41.779016]
      }
    },
    {
      "type": "Feature",
      "properties": {
        "id": "IT445",
        "name": "Aprilia",
        "type": "rail",
        "importance": 4
      },
      "geometry": {
        "type": "Point",
        "coordinates": [12.6393, 41.59217]
      }
    },
    {
      "type": "Feature",
      "properties": {
        "id": "UK1430",
        "name": "Apsley",
        "type": "rail",
        "importance": 4
      },
      "geometry": {
        "type": "Point",
        "coordinates": [-0.4629888, 51.732365]
      }
    },
    {
      "type": "Feature",
      "properties": {
        "id": "IT448",
        "name": "Aragona Caldare",
        "type": "rail",
        "importance": 4
      },
      "geometry": {
        "type": "Point",
        "coordinates": [13.636886, 37.381194]
      }
    },
    {
      "type": "Feature",
      "properties": {
        "id": "ITM079",
        "name": "Aranceto (Catanzaro)",
        "type": "metro",
        "importance": 4
      },
      "geometry": {
        "type": "Point",
        "coordinates": [16.611441, 38.839192]
      }
    },
    {
      "type": "Feature",
      "properties": {
        "id": "IT449",
        "name": "Arbia",
        "type": "rail",
        "importance": 4
      },
      "geometry": {
        "type": "Point",
        "coordinates": [11.406229, 43.294363]
      }
    },
    {
      "type": "Feature",
      "properties": {
        "id": "CH06308",
        "name": "Arbon",
        "type": "rail",
        "importance": 4
      },
      "geometry": {
        "type": "Point",
        "coordinates": [9.433359, 47.510588]
      }
    },
    {
      "type": "Feature",
      "properties": {
        "id": "CH16270",
        "name": "Arbon Seemoosriet",
        "type": "rail",
        "importance": 4
      },
      "geometry": {
        "type": "Point",
        "coordinates": [9.42502, 47.521195]
      }
    },
    {
      "type": "Feature",
      "properties": {
        "id": "IT2110",
        "name": "Arbostella",
        "type": "rail",
        "importance": 4
      },
      "geometry": {
        "type": "Point",
        "coordinates": [14.813146, 40.651695]
      }
    },
    {
      "type": "Feature",
      "properties": {
        "id": "UK9079",
        "name": "Arbroath",
        "type": "rail",
        "importance": 4
      },
      "geometry": {
        "type": "Point",
        "coordinates": [-2.5892737, 56.5593376]
      }
    },
    {
      "type": "Feature",
      "properties": {
        "id": "BE14472",
        "name": "Arcaden/Arcades",
        "type": "rail",
        "importance": 4
      },
      "geometry": {
        "type": "Point",
        "coordinates": [4.398333, 50.809722]
      }
    },
    {
      "type": "Feature",
      "properties": {
        "id": "IT450",
        "name": "Arce",
        "type": "rail",
        "importance": 4
      },
      "geometry": {
        "type": "Point",
        "coordinates": [13.571856, 41.583305]
      }
    },
    {
      "type": "Feature",
      "properties": {
        "id": "IT3594",
        "name": "Arcene",
        "type": "rail",
        "importance": 4
      },
      "geometry": {
        "type": "Point",
        "coordinates": [9.60543, 45.57445]
      }
    },
    {
      "type": "Feature",
      "properties": {
        "id": "BE11759",
        "name": "Archennes",
        "type": "rail",
        "importance": 4
      },
      "geometry": {
        "type": "Point",
        "coordinates": [4.662444, 50.754345]
      }
    },
    {
      "type": "Feature",
      "properties": {
        "id": "UKM007",
        "name": "Archway",
        "type": "metro",
        "importance": 4
      },
      "geometry": {
        "type": "Point",
        "coordinates": [-0.1348189, 51.5653116]
      }
    },
    {
      "type": "Feature",
      "properties": {
        "id": "IT451",
        "name": "Arcisate",
        "type": "rail",
        "importance": 4
      },
      "geometry": {
        "type": "Point",
        "coordinates": [8.86292, 45.85857]
      }
    },
    {
      "type": "Feature",
      "properties": {
        "id": "ITM316",
        "name": "Arco di Travertino (Roma)",
        "type": "metro",
        "importance": 4
      },
      "geometry": {
        "type": "Point",
        "coordinates": [12.535801, 41.866078]
      }
    },
    {
      "type": "Feature",
      "properties": {
        "id": "ITM288",
        "name": "Arco Mirelli (Napoli)",
        "type": "metro",
        "importance": 4
      },
      "geometry": {
        "type": "Point",
        "coordinates": [14.226695, 40.832544]
      }
    },
    {
      "type": "Feature",
      "properties": {
        "id": "IT452",
        "name": "Arcola",
        "type": "rail",
        "importance": 4
      },
      "geometry": {
        "type": "Point",
        "coordinates": [9.91465, 44.118652]
      }
    },
    {
      "type": "Feature",
      "properties": {
        "id": "IT453",
        "name": "Arcore",
        "type": "rail",
        "importance": 4
      },
      "geometry": {
        "type": "Point",
        "coordinates": [9.322924, 45.623773]
      }
    },
    {
      "type": "Feature",
      "properties": {
        "id": "IT455",
        "name": "Ardenno Masino",
        "type": "rail",
        "importance": 4
      },
      "geometry": {
        "type": "Point",
        "coordinates": [9.65066, 46.16159]
      }
    },
    {
      "type": "Feature",
      "properties": {
        "id": "CH09266",
        "name": "Ardez",
        "type": "rail",
        "importance": 4
      },
      "geometry": {
        "type": "Point",
        "coordinates": [10.200967, 46.773557]
      }
    },
    {
      "type": "Feature",
      "properties": {
        "id": "UK8613",
        "name": "Ardgay",
        "type": "rail",
        "importance": 4
      },
      "geometry": {
        "type": "Point",
        "coordinates": [-4.362216, 57.8815701]
      }
    },
    {
      "type": "Feature",
      "properties": {
        "id": "UK9962",
        "name": "Ardlui",
        "type": "rail",
        "importance": 4
      },
      "geometry": {
        "type": "Point",
        "coordinates": [-4.7216053, 56.3018438]
      }
    },
    {
      "type": "Feature",
      "properties": {
        "id": "CH01505",
        "name": "Ardon",
        "type": "rail",
        "importance": 4
      },
      "geometry": {
        "type": "Point",
        "coordinates": [7.270947, 46.208594]
      }
    },
    {
      "type": "Feature",
      "properties": {
        "id": "IT10",
        "name": "Ardore",
        "type": "rail",
        "importance": 4
      },
      "geometry": {
        "type": "Point",
        "coordinates": [16.207224, 38.17577]
      }
    },
    {
      "type": "Feature",
      "properties": {
        "id": "IE183",
        "name": "Ardrahan",
        "type": "rail",
        "importance": 4
      },
      "geometry": {
        "type": "Point",
        "coordinates": [-8.81483, 53.1572]
      }
    },
    {
      "type": "Feature",
      "properties": {
        "id": "UK9453",
        "name": "Ardrossan Harbour",
        "type": "rail",
        "importance": 4
      },
      "geometry": {
        "type": "Point",
        "coordinates": [-4.8202505, 55.6395086]
      }
    },
    {
      "type": "Feature",
      "properties": {
        "id": "UK9569",
        "name": "Ardrossan South Beach",
        "type": "rail",
        "importance": 4
      },
      "geometry": {
        "type": "Point",
        "coordinates": [-4.8005345, 55.6411104]
      }
    },
    {
      "type": "Feature",
      "properties": {
        "id": "UK9455",
        "name": "Ardrossan Town",
        "type": "rail",
        "importance": 4
      },
      "geometry": {
        "type": "Point",
        "coordinates": [-4.8120759, 55.640213]
      }
    },
    {
      "type": "Feature",
      "properties": {
        "id": "UK2960",
        "name": "Ardwick",
        "type": "rail",
        "importance": 4
      },
      "geometry": {
        "type": "Point",
        "coordinates": [-2.2132093, 53.4711613]
      }
    },
    {
      "type": "Feature",
      "properties": {
        "id": "IT2115",
        "name": "Arechi",
        "type": "rail",
        "importance": 4
      },
      "geometry": {
        "type": "Point",
        "coordinates": [14.824859, 40.648177]
      }
    },
    {
      "type": "Feature",
      "properties": {
        "id": "IT457",
        "name": "Arena Po",
        "type": "rail",
        "importance": 4
      },
      "geometry": {
        "type": "Point",
        "coordinates": [9.360318, 45.082171]
      }
    },
    {
      "type": "Feature",
      "properties": {
        "id": "IT198",
        "name": "Arenzano",
        "type": "rail",
        "importance": 4
      },
      "geometry": {
        "type": "Point",
        "coordinates": [8.678532, 44.403089]
      }
    },
    {
      "type": "Feature",
      "properties": {
        "id": "CH94231",
        "name": "Areuse Les Isles Littorail",
        "type": "rail",
        "importance": 4
      },
      "geometry": {
        "type": "Point",
        "coordinates": [6.84858, 46.95422]
      }
    },
    {
      "type": "Feature",
      "properties": {
        "id": "CH95245",
        "name": "Areuse Littorail",
        "type": "rail",
        "importance": 4
      },
      "geometry": {
        "type": "Point",
        "coordinates": [6.853057, 46.954495]
      }
    },
    {
      "type": "Feature",
      "properties": {
        "id": "IT458",
        "name": "Arezzo",
        "type": "rail",
        "importance": 3
      },
      "geometry": {
        "type": "Point",
        "coordinates": [11.875681, 43.461174]
      }
    },
    {
      "type": "Feature",
      "properties": {
        "id": "IT459",
        "name": "Argenta",
        "type": "rail",
        "importance": 4
      },
      "geometry": {
        "type": "Point",
        "coordinates": [11.84127, 44.61681]
      }
    },
    {
      "type": "Feature",
      "properties": {
        "id": "ITL091",
        "name": "Argine Palasport",
        "type": "light",
        "importance": 4
      },
      "geometry": {
        "type": "Point",
        "coordinates": [14.338286, 40.862397]
      }
    },
    {
      "type": "Feature",
      "properties": {
        "id": "ITM254",
        "name": "Argonne (Milano)",
        "type": "metro",
        "importance": 4
      },
      "geometry": {
        "type": "Point",
        "coordinates": [9.231915, 45.468099]
      }
    },
    {
      "type": "Feature",
      "properties": {
        "id": "UK9961",
        "name": "Argyle Street",
        "type": "rail",
        "importance": 4
      },
      "geometry": {
        "type": "Point",
        "coordinates": [-4.2505836, 55.8576248]
      }
    },
    {
      "type": "Feature",
      "properties": {
        "id": "IT460",
        "name": "Ariano Irpino",
        "type": "rail",
        "importance": 4
      },
      "geometry": {
        "type": "Point",
        "coordinates": [15.117642, 41.181907]
      }
    },
    {
      "type": "Feature",
      "properties": {
        "id": "UK8821",
        "name": "Arisaig",
        "type": "rail",
        "importance": 4
      },
      "geometry": {
        "type": "Point",
        "coordinates": [-5.8396337, 56.9129624]
      }
    },
    {
      "type": "Feature",
      "properties": {
        "id": "NL068",
        "name": "Arkel",
        "type": "rail",
        "importance": 4
      },
      "geometry": {
        "type": "Point",
        "coordinates": [4.992778, 51.871944]
      }
    },
    {
      "type": "Feature",
      "properties": {
        "id": "IE144",
        "name": "Arklow",
        "type": "rail",
        "importance": 4
      },
      "geometry": {
        "type": "Point",
        "coordinates": [-6.15994, 52.7932]
      }
    },
    {
      "type": "Feature",
      "properties": {
        "id": "UK6171",
        "name": "Arlesey",
        "type": "rail",
        "importance": 4
      },
      "geometry": {
        "type": "Point",
        "coordinates": [-0.266464, 52.0258212]
      }
    },
    {
      "type": "Feature",
      "properties": {
        "id": "BE66001",
        "name": "Arlon",
        "type": "rail",
        "importance": 3
      },
      "geometry": {
        "type": "Point",
        "coordinates": [5.809971, 49.68053]
      }
    },
    {
      "type": "Feature",
      "properties": {
        "id": "UK0990",
        "name": "Armadale (West Lothian)",
        "type": "rail",
        "importance": 4
      },
      "geometry": {
        "type": "Point",
        "coordinates": [-3.6929618, 55.8865302]
      }
    },
    {
      "type": "Feature",
      "properties": {
        "id": "UK2054",
        "name": "Armathwaite",
        "type": "rail",
        "importance": 4
      },
      "geometry": {
        "type": "Point",
        "coordinates": [-2.7720801, 54.809435]
      }
    },
    {
      "type": "Feature",
      "properties": {
        "id": "CH06211",
        "name": "Arnegg",
        "type": "rail",
        "importance": 4
      },
      "geometry": {
        "type": "Point",
        "coordinates": [9.252025, 47.442002]
      }
    },
    {
      "type": "Feature",
      "properties": {
        "id": "NL069",
        "name": "Arnemuiden",
        "type": "rail",
        "importance": 4
      },
      "geometry": {
        "type": "Point",
        "coordinates": [3.669167, 51.501667]
      }
    },
    {
      "type": "Feature",
      "properties": {
        "id": "CH01107",
        "name": "Arnex",
        "type": "rail",
        "importance": 4
      },
      "geometry": {
        "type": "Point",
        "coordinates": [6.518907, 46.698078]
      }
    },
    {
      "type": "Feature",
      "properties": {
        "id": "NL071",
        "name": "Arnhem Centraal",
        "type": "rail",
        "importance": 3
      },
      "geometry": {
        "type": "Point",
        "coordinates": [5.899167, 51.985001]
      }
    },
    {
      "type": "Feature",
      "properties": {
        "id": "NL075",
        "name": "Arnhem Presikhaaf",
        "type": "rail",
        "importance": 4
      },
      "geometry": {
        "type": "Point",
        "coordinates": [5.943889, 51.988056]
      }
    },
    {
      "type": "Feature",
      "properties": {
        "id": "NL072",
        "name": "Arnhem Velperpoort",
        "type": "rail",
        "importance": 4
      },
      "geometry": {
        "type": "Point",
        "coordinates": [5.919445, 51.985279]
      }
    },
    {
      "type": "Feature",
      "properties": {
        "id": "NL227",
        "name": "Arnhem Zuid",
        "type": "rail",
        "importance": 4
      },
      "geometry": {
        "type": "Point",
        "coordinates": [5.851944, 51.955002]
      }
    },
    {
      "type": "Feature",
      "properties": {
        "id": "UKM008",
        "name": "Arnos Grove",
        "type": "metro",
        "importance": 4
      },
      "geometry": {
        "type": "Point",
        "coordinates": [-0.1330981, 51.6164256]
      }
    },
    {
      "type": "Feature",
      "properties": {
        "id": "UK1963",
        "name": "Arnside",
        "type": "rail",
        "importance": 4
      },
      "geometry": {
        "type": "Point",
        "coordinates": [-2.8280672, 54.202601]
      }
    },
    {
      "type": "Feature",
      "properties": {
        "id": "IT461",
        "name": "Arona",
        "type": "rail",
        "importance": 4
      },
      "geometry": {
        "type": "Point",
        "coordinates": [8.559082, 45.755399]
      }
    },
    {
      "type": "Feature",
      "properties": {
        "id": "CH09157",
        "name": "Arosa",
        "type": "rail",
        "importance": 4
      },
      "geometry": {
        "type": "Point",
        "coordinates": [9.679455, 46.783924]
      }
    },
    {
      "type": "Feature",
      "properties": {
        "id": "IT462",
        "name": "Arpino",
        "type": "rail",
        "importance": 4
      },
      "geometry": {
        "type": "Point",
        "coordinates": [13.599597, 41.647896]
      }
    },
    {
      "type": "Feature",
      "properties": {
        "id": "IT463",
        "name": "Arqua'",
        "type": "rail",
        "importance": 4
      },
      "geometry": {
        "type": "Point",
        "coordinates": [11.748422, 45.006494]
      }
    },
    {
      "type": "Feature",
      "properties": {
        "id": "IT199",
        "name": "Arquata Scrivia",
        "type": "rail",
        "importance": 4
      },
      "geometry": {
        "type": "Point",
        "coordinates": [8.885006, 44.692234]
      }
    },
    {
      "type": "Feature",
      "properties": {
        "id": "UK8045",
        "name": "Arram",
        "type": "rail",
        "importance": 4
      },
      "geometry": {
        "type": "Point",
        "coordinates": [-0.4265454, 53.8843298]
      }
    },
    {
      "type": "Feature",
      "properties": {
        "id": "UK9963",
        "name": "Arrochar & Tarbet",
        "type": "rail",
        "importance": 4
      },