[{"id":"ITM101","name":"A2A Lamarmora","type":"metro","geo":{"lat":45.5216677,"lng":10.2128527},"importance":4},{"id":"IT364","name":"Abano Terme","type":"rail","geo":{"lat":45.355339,"lng":11.811421},"importance":4},{"id":"IT365","name":"Abbadia Lariana","type":"rail","geo":{"lat":45.895786,"lng":9.335066},"importance":4},{"id":"IT366","name":"Abbasanta","type":"rail","geo":{"lat":40.126667,"lng":8.816135},"importance":4},{"id":"IT367","name":"Abbiategrasso","type":"rail","geo":{"lat":45.397588,"lng":8.920445},"importance":4},{"id":"ITM152","name":"Abbiategrasso-Chiesa Rossa","type":"metro","geo":{"lat":45.430014,"lng":9.1773223},"importance":4},{"id":"IT368","name":"Acate","type":"rail","geo":{"lat":36.996732,"lng":14.425544},"importance":4},{"id":"IT369","name":"Acciano","type":"rail","geo":{"lat":42.17675,"lng":13.711102},"importance":4},{"id":"IT370","name":"Acerra","type":"rail","geo":{"lat":40.939861,"lng":14.372859},"importance":4},{"id":"ITM11","name":"Acilia","type":"metro","geo":{"lat":41.7835343,"lng":12.3608521},"importance":4},{"id":"ITM293","name":"Acilia Sud - Dragona","type":"metro","geo":{"lat":41.7760617,"lng":12.3420465},"importance":4},{"id":"IT371","name":"Acireale","type":"rail","geo":{"lat":37.595831,"lng":15.161525},"importance":4},{"id":"IT372","name":"Acqua Acetosa","type":"rail","geo":{"lat":41.93179,"lng":12.487228},"importance":4},{"id":"IT1","name":"Acquafredda","type":"rail","geo":{"lat":40.035529,"lng":15.671849},"importance":4},{"id":"IT373","name":"Acquamela","type":"rail","geo":{"lat":40.733401,"lng":14.772197},"importance":4},{"id":"IT374","name":"Acquanegra Cremonese","type":"rail","geo":{"lat":45.17194,"lng":9.888607},"importance":4},{"id":"IT2","name":"Acquappesa","type":"rail","importance":4},{"id":"IT5453","name":"Acquasparta","type":"rail","importance":4},{"id":"IT376","name":"Acquaviva Casteltermini","type":"rail","geo":{"lat":37.569819,"lng":13.674932},"importance":4},{"id":"IT377","name":"Acquaviva Delle Fonti","type":"rail","geo":{"lat":40.892867,"lng":16.839915},"importance":4},{"id":"IT2499","name":"Acquedolci-S.Fratello","type":"rail","importance":4},{"id":"IT188","name":"Acqui Terme","type":"rail","geo":{"lat":44.672534,"lng":8.473459},"importance":4},{"id":"IT378","name":"Adria","type":"rail","geo":{"lat":45.060506,"lng":12.05423},"importance":4},{"id":"ITM166","name":"Affori Centro","type":"metro","geo":{"lat":45.5135394,"lng":9.1739662},"importance":4},{"id":"ITM52","name":"Affori FN","type":"metro","geo":{"lat":45.5216145,"lng":9.1682909},"importance":4},{"id":"IT4","name":"Africo Nuovo","type":"rail","geo":{"lat":38.052651,"lng":16.143902},"importance":4},{"id":"IT379","name":"Agliano Castelnuovo Calcea","type":"rail","geo":{"lat":44.786112,"lng":8.267733},"importance":4},{"id":"IT3252","name":"Agognate","type":"rail","geo":{"lat":45.47092,"lng":8.58017},"importance":4},{"id":"IT383","name":"Agrigento Bassa","type":"rail","geo":{"lat":37.319244,"lng":13.58812},"importance":4},{"id":"IT384","name":"Agrigento Centrale","type":"rail","geo":{"lat":37.309079,"lng":13.584723},"importance":3},{"id":"IT5","name":"Agropoli Castellabate","type":"rail","geo":{"lat":40.351642,"lng":15.001761},"importance":4},{"id":"IT386","name":"Aielli","type":"rail","geo":{"lat":42.062191,"lng":13.581246},"importance":4},{"id":"IT387","name":"Airasca","type":"rail","geo":{"lat":44.927944,"lng":7.483395},"importance":4},{"id":"IT189","name":"Airole","type":"rail","geo":{"lat":43.870478,"lng":7.552975},"importance":4},{"id":"IT388","name":"Airuno","type":"rail","geo":{"lat":45.755491,"lng":9.422322},"importance":4},{"id":"IT389","name":"Ala","type":"rail","geo":{"lat":45.7591,"lng":10.996496},"importance":4},{"id":"IT390","name":"Alanno","type":"rail","geo":{"lat":42.287264,"lng":14.019411},"importance":4},{"id":"IT391","name":"Alano Fener Valdobbiadene","type":"rail","importance":4},{"id":"IT190","name":"Alassio","type":"rail","geo":{"lat":44.007832,"lng":8.171559},"importance":4},{"id":"IT392","name":"Alba","type":"rail","geo":{"lat":44.697811,"lng":8.030866},"importance":4},{"id":"IT393","name":"Alba Adriatica-Nereto-Controguerra","type":"rail","geo":{"lat":42.83446,"lng":13.917295},"importance":4},{"id":"IT394","name":"Albacina","type":"rail","importance":4},{"id":"IT779","name":"Albairate-Vermezzo","type":"rail","geo":{"lat":45.404354,"lng":8.958227},"importance":4},{"id":"IT395","name":"Albano Di Lucania","type":"rail","geo":{"lat":40.574768,"lng":16.021373},"importance":4},{"id":"IT396","name":"Albano Laziale","type":"rail","geo":{"lat":41.726443,"lng":12.658123},"importance":4},{"id":"IT397","name":"Albano S.Alessandro","type":"rail","geo":{"lat":45.683,"lng":9.76759},"importance":4},{"id":"IT398","name":"Albanova","type":"rail","geo":{"lat":40.996266,"lng":14.128559},"importance":4},{"id":"IT399","name":"Albaredo","type":"rail","geo":{"lat":45.670196,"lng":12.015108},"importance":4},{"id":"IT401","name":"Albate-Trecallo","type":"rail","geo":{"lat":45.777537,"lng":9.095826},"importance":4},{"id":"IT191","name":"Albenga","type":"rail","geo":{"lat":44.047378,"lng":8.2214},"importance":4},{"id":"IT404","name":"Albinia","type":"rail","geo":{"lat":42.502251,"lng":11.211509},"importance":4},{"id":"IT192","name":"Albisola","type":"rail","geo":{"lat":44.33469,"lng":8.5121},"importance":4},{"id":"IT405","name":"Albizzate Solbiate Arno","type":"rail","geo":{"lat":45.723289,"lng":8.806117},"importance":4},{"id":"IT406","name":"Albonese","type":"rail","geo":{"lat":45.297792,"lng":8.714606},"importance":4},{"id":"IT407","name":"Albuzzano","type":"rail","geo":{"lat":45.17238,"lng":9.26174},"importance":4},{"id":"IT409","name":"Alcamo Diramazione","type":"rail","geo":{"lat":37.978682,"lng":12.915923},"importance":4},{"id":"IT410","name":"Alcantara","type":"rail","geo":{"lat":37.821454,"lng":15.251161},"importance":4},{"id":"IT193","name":"Alessandria","type":"rail","geo":{"lat":44.908807,"lng":8.607571},"importance":3},{"id":"ITM93","name":"Alessandrino","type":"metro","geo":{"lat":41.8712904,"lng":12.5788298},"importance":4},{"id":"IT411","name":"Alfedena-Scontrone","type":"rail","geo":{"lat":41.738518,"lng":14.045086},"importance":4},{"id":"IT412","name":"Alfonsine","type":"rail","geo":{"lat":44.512364,"lng":12.039155},"importance":4},{"id":"IT413","name":"Ali' Terme","type":"rail","geo":{"lat":38.005116,"lng":15.423676},"importance":4},{"id":"IT414","name":"Alice Belcolle","type":"rail","geo":{"lat":44.722643,"lng":8.440083},"importance":4},{"id":"IT415","name":"Allerona-Castel Viscardo","type":"rail","geo":{"lat":42.784702,"lng":12.035633},"importance":4},{"id":"IT416","name":"Alpignano","type":"rail","geo":{"lat":45.091278,"lng":7.523874},"importance":4},{"id":"IT418","name":"Altamura","type":"rail","geo":{"lat":40.838,"lng":16.551667},"importance":4},{"id":"IT196","name":"Altare","type":"rail","geo":{"lat":44.33617,"lng":8.332753},"importance":4},{"id":"IT419","name":"Altavilla Irpina","type":"rail","geo":{"lat":41.015163,"lng":14.784842},"importance":4},{"id":"IT420","name":"Altavilla Milicia","type":"rail","geo":{"lat":38.048194,"lng":13.554273},"importance":4},{"id":"IT421","name":"Altavilla Tavernelle","type":"rail","geo":{"lat":45.511801,"lng":11.454374},"importance":4},{"id":"IT422","name":"Altopascio","type":"rail","geo":{"lat":43.817416,"lng":10.672758},"importance":4},{"id":"IT423","name":"Alviano","type":"rail","geo":{"lat":42.591816,"lng":12.25959},"importance":4},{"id":"IT8","name":"Amantea","type":"rail","geo":{"lat":39.134384,"lng":16.068673},"importance":4},{"id":"IT424","name":"Ambivere Mapello","type":"rail","geo":{"lat":45.72215,"lng":9.55022},"importance":4},{"id":"ITM231","name":"Amendola","type":"metro","geo":{"lat":45.4736967,"lng":9.1509963},"importance":4},{"id":"IT9","name":"Amendolara Oriolo","type":"rail","geo":{"lat":39.933823,"lng":16.602897},"importance":4},{"id":"IT427","name":"Amorosi Melizzano","type":"rail","geo":{"lat":41.192896,"lng":14.47916},"importance":4},{"id":"IT428","name":"Anagni-Fiuggi","type":"rail","geo":{"lat":41.710463,"lng":13.096092},"importance":4},{"id":"ITM324","name":"Anagnina","type":"metro","geo":{"lat":41.8427897,"lng":12.5860901},"importance":4},{"id":"IT429","name":"Ancona","type":"rail","geo":{"lat":43.607447,"lng":13.497719},"importance":2},{"id":"IT1096","name":"Ancona Stadio","type":"rail","geo":{"lat":43.566416,"lng":13.520808},"importance":4},{"id":"IT3473","name":"Ancona Torrette","type":"rail","geo":{"lat":43.609936,"lng":13.455777},"importance":4},{"id":"IT3365","name":"Anconetta","type":"rail","geo":{"lat":45.565122,"lng":11.567805},"importance":4},{"id":"IT4503","name":"Andora","type":"rail","geo":{"lat":43.960409,"lng":8.13888},"importance":4},{"id":"IT431","name":"Angri","type":"rail","geo":{"lat":40.746313,"lng":14.575426},"importance":4},{"id":"IT432","name":"Anguillara","type":"rail","geo":{"lat":42.067217,"lng":12.293355},"importance":4},{"id":"IT1310","name":"Anna'","type":"rail","geo":{"lat":37.925605,"lng":15.748079},"importance":4},{"id":"IT3466","name":"Annone Veneto","type":"rail","geo":{"lat":45.774745,"lng":12.680345},"importance":4},{"id":"IT434","name":"Antignano","type":"rail","geo":{"lat":43.495476,"lng":10.329099},"importance":4},{"id":"IT435","name":"Antrodoco Borgo Velino","type":"rail","geo":{"lat":42.409964,"lng":13.070861},"importance":4},{"id":"IT436","name":"Antrodoco Centro","type":"rail","geo":{"lat":42.415376,"lng":13.076357},"importance":4},{"id":"IT437","name":"Anversa-Villalago-Scanno","type":"rail","geo":{"lat":42.017352,"lng":13.835857},"importance":4},{"id":"IT438","name":"Anzano Del Parco","type":"rail","geo":{"lat":45.76505,"lng":9.20268},"importance":4},{"id":"IT439","name":"Anzio","type":"rail","geo":{"lat":41.452068,"lng":12.62936},"importance":4},{"id":"IT440","name":"Anzio Colonia","type":"rail","geo":{"lat":41.461801,"lng":12.615936},"importance":4},{"id":"IT441","name":"Anzola Dell'Emilia","type":"rail","geo":{"lat":44.550943,"lng":11.196603},"importance":4},{"id":"IT442","name":"Aosta","type":"rail","geo":{"lat":45.734316,"lng":7.322313},"importance":3},{"id":"IT3501","name":"Aosta Istituto","type":"rail","importance":4},{"id":"IT3502","name":"Aosta Viale Europa","type":"rail","geo":{"lat":45.732544,"lng":7.295942},"importance":4},{"id":"IT443","name":"Apice S.Arcangelo Bonito","type":"rail","geo":{"lat":41.140867,"lng":14.918867},"importance":4},{"id":"IT3428","name":"Appiano","type":"rail","geo":{"lat":41.911322,"lng":12.438716},"importance":4},{"id":"IT444","name":"Apricena","type":"rail","geo":{"lat":41.779016,"lng":15.445426},"importance":4},{"id":"IT445","name":"Aprilia","type":"rail","geo":{"lat":41.59217,"lng":12.6393},"importance":4},{"id":"IT448","name":"Aragona Caldare","type":"rail","geo":{"lat":37.381194,"lng":13.636886},"importance":4},{"id":"ITM79","name":"Aranceto","type":"metro","geo":{"lat":38.8391924,"lng":16.611441},"importance":4},{"id":"IT449","name":"Arbia","type":"rail","geo":{"lat":43.294363,"lng":11.406229},"importance":4},{"id":"IT2110","name":"Arbostella","type":"rail","geo":{"lat":40.651695,"lng":14.813146},"importance":4},{"id":"IT450","name":"Arce","type":"rail","geo":{"lat":41.583305,"lng":13.571856},"importance":4},{"id":"IT3594","name":"Arcene","type":"rail","geo":{"lat":45.57445,"lng":9.60543},"importance":4},{"id":"IT451","name":"Arcisate","type":"rail","geo":{"lat":45.85857,"lng":8.86292},"importance":4},{"id":"ITM316","name":"Arco di Travertino","type":"metro","geo":{"lat":41.8660784,"lng":12.5358014},"importance":4},{"id":"ITM288","name":"Arco Mirelli","type":"metro","geo":{"lat":40.8325441,"lng":14.2266946},"importance":4},{"id":"IT452","name":"Arcola","type":"rail","geo":{"lat":44.118652,"lng":9.91465},"importance":4},{"id":"IT453","name":"Arcore","type":"rail","geo":{"lat":45.623773,"lng":9.322924},"importance":4},{"id":"IT455","name":"Ardenno Masino","type":"rail","geo":{"lat":46.16159,"lng":9.65066},"importance":4},{"id":"IT10","name":"Ardore","type":"rail","geo":{"lat":38.17577,"lng":16.207224},"importance":4},{"id":"IT2115","name":"Arechi","type":"rail","geo":{"lat":40.648177,"lng":14.824859},"importance":4},{"id":"IT457","name":"Arena Po","type":"rail","geo":{"lat":45.082171,"lng":9.360318},"importance":4},{"id":"IT198","name":"Arenzano","type":"rail","geo":{"lat":44.403089,"lng":8.678532},"importance":4},{"id":"IT458","name":"Arezzo","type":"rail","geo":{"lat":43.461174,"lng":11.875681},"importance":3},{"id":"IT459","name":"Argenta","type":"rail","geo":{"lat":44.61681,"lng":11.84127},"importance":4},{"id":"ITM254","name":"Argonne","type":"metro","geo":{"lat":45.4680992,"lng":9.2319145},"importance":4},{"id":"IT460","name":"Ariano Irpino","type":"rail","geo":{"lat":41.181907,"lng":15.117642},"importance":4},{"id":"IT461","name":"Arona","type":"rail","geo":{"lat":45.755399,"lng":8.559082},"importance":4},{"id":"IT462","name":"Arpino","type":"rail","geo":{"lat":41.647896,"lng":13.599597},"importance":4},{"id":"IT463","name":"Arqua'","type":"rail","geo":{"lat":45.006494,"lng":11.748422},"importance":4},{"id":"IT199","name":"Arquata Scrivia","type":"rail","geo":{"lat":44.692234,"lng":8.885006},"importance":4},{"id":"IT464","name":"Arsoli","type":"rail","geo":{"lat":42.045868,"lng":13.013312},"importance":4},{"id":"IT465","name":"Artegna","type":"rail","geo":{"lat":46.231321,"lng":13.162441},"importance":4},{"id":"IT466","name":"Arvier","type":"rail","importance":4},{"id":"IT11","name":"Ascea","type":"rail","geo":{"lat":40.141023,"lng":15.172334},"importance":4},{"id":"IT467","name":"Asciano","type":"rail","geo":{"lat":43.235325,"lng":11.579148},"importance":4},{"id":"IT468","name":"Asciano Monte Oliveto Maggiore","type":"rail","geo":{"lat":43.231731,"lng":11.563485},"importance":4},{"id":"IT469","name":"Ascoli Piceno","type":"rail","geo":{"lat":42.855352,"lng":13.587965},"importance":4},{"id":"IT470","name":"Ascoli Satriano","type":"rail","geo":{"lat":41.220534,"lng":15.548542},"importance":4},{"id":"IT472","name":"Asola","type":"rail","geo":{"lat":45.220492,"lng":10.402497},"importance":4},{"id":"ITM48","name":"Assago Milanofiori Forum","type":"metro","geo":{"lat":45.4018117,"lng":9.1455762},"importance":4},{"id":"ITM47","name":"Assago Milanofiori Nord","type":"metro","geo":{"lat":45.4094526,"lng":9.1500362},"importance":4},{"id":"IT473","name":"Assemini","type":"rail","geo":{"lat":39.287733,"lng":8.998091},"importance":4},{"id":"IT3052","name":"Assemini Carmine","type":"rail","geo":{"lat":39.281795,"lng":9.013726},"importance":4},{"id":"IT3051","name":"Assemini S.Lucia","type":"rail","geo":{"lat":39.290977,"lng":8.989268},"importance":4},{"id":"IT474","name":"Assisi","type":"rail","geo":{"lat":43.059072,"lng":12.585346},"importance":3},{"id":"IT475","name":"Asti","type":"rail","geo":{"lat":44.895102,"lng":8.208016},"importance":3},{"id":"IT476","name":"Attigliano-Bomarzo","type":"rail","geo":{"lat":42.517967,"lng":12.294663},"importance":4},{"id":"IT480","name":"Augusta","type":"rail","importance":4},{"id":"ITM44","name":"Augusto","type":"metro","geo":{"lat":40.8261854,"lng":14.1983167},"importance":4},{"id":"IT3587","name":"Aulla Lunigiana","type":"rail","geo":{"lat":44.218808,"lng":9.976893},"importance":4},{"id":"IT483","name":"Avellino","type":"rail","geo":{"lat":40.921446,"lng":14.820326},"importance":3},{"id":"IT484","name":"Aversa","type":"rail","geo":{"lat":40.973237,"lng":14.218109},"importance":4},{"id":"ITM150","name":"Aversa Centro","type":"metro","geo":{"lat":40.9740846,"lng":14.2136486},"importance":4},{"id":"ITM149","name":"Aversa Ippodromo","type":"metro","geo":{"lat":40.960825,"lng":14.2107877},"importance":4},{"id":"IT485","name":"Avezzano","type":"rail","geo":{"lat":42.039379,"lng":13.42664},"importance":4},{"id":"IT486","name":"Aviano","type":"rail","geo":{"lat":46.064218,"lng":12.590688},"importance":4},{"id":"IT487","name":"Avigliana","type":"rail","geo":{"lat":45.085225,"lng":7.401137},"importance":4},{"id":"IT488","name":"Avigliano Lucania","type":"rail","geo":{"lat":40.714549,"lng":15.785431},"importance":4},{"id":"IT489","name":"Avio","type":"rail","geo":{"lat":45.733752,"lng":10.956027},"importance":4},{"id":"IT490","name":"Avise","type":"rail","importance":4},{"id":"IT491","name":"Avola","type":"rail","geo":{"lat":36.907486,"lng":15.12593},"importance":4},{"id":"IT564","name":"Badesse","type":"rail","geo":{"lat":43.385605,"lng":11.272982},"importance":4},{"id":"IT565","name":"Badia Polesine","type":"rail","geo":{"lat":45.094411,"lng":11.484732},"importance":4},{"id":"IT12","name":"Badolato","type":"rail","geo":{"lat":38.572233,"lng":16.567582},"importance":4},{"id":"IT566","name":"Bagheria","type":"rail","geo":{"lat":38.089727,"lng":13.507384},"importance":4},{"id":"IT567","name":"Bagnacavallo","type":"rail","geo":{"lat":44.41208,"lng":11.96941},"importance":4},{"id":"IT13","name":"Bagnara","type":"rail","geo":{"lat":38.282695,"lng":15.800327},"importance":4},{"id":"IT568","name":"Bagnaria Arsa","type":"rail","importance":4},{"id":"IT569","name":"Bagnasco","type":"rail","importance":4},{"id":"IT570","name":"Bagni Di Lucca","type":"rail","geo":{"lat":44.003449,"lng":10.551634},"importance":4},{"id":"IT572","name":"Bagni Di Tivoli","type":"rail","geo":{"lat":41.949727,"lng":12.722241},"importance":4},{"id":"IT573","name":"Bagnoli Agnano Terme","type":"rail","geo":{"lat":40.819357,"lng":14.166708},"importance":4},{"id":"IT576","name":"Bagnolo Mella","type":"rail","geo":{"lat":45.428391,"lng":10.183755},"importance":4},{"id":"IT577","name":"Baiano Di Spoleto","type":"rail","geo":{"lat":42.726158,"lng":12.663832},"importance":4},{"id":"IT5043","name":"Balangero","type":"rail","geo":{"lat":45.265633,"lng":7.519423},"importance":4},{"id":"IT5439","name":"Balanzano","type":"rail","geo":{"lat":43.612344,"lng":11.864009},"importance":4},{"id":"IT578","name":"Baldichieri-Tigliole","type":"rail","geo":{"lat":44.899299,"lng":8.091182},"importance":4},{"id":"ITM317","name":"Baldo degli Ubaldi","type":"metro","geo":{"lat":41.8990319,"lng":12.4335844},"importance":4},{"id":"IT579","name":"Balestrate","type":"rail","geo":{"lat":38.05313,"lng":13.007384},"importance":4},{"id":"IT580","name":"Balsorano","type":"rail","geo":{"lat":41.809517,"lng":13.55675},"importance":4},{"id":"IT3348","name":"Balvano Ricigliano","type":"rail","geo":{"lat":40.649965,"lng":15.495441},"importance":4},{"id":"IT581","name":"Balzola","type":"rail","geo":{"lat":45.174117,"lng":8.400747},"importance":4},{"id":"ITM221","name":"Bande Nere","type":"metro","geo":{"lat":45.461524,"lng":9.1364657},"importance":4},{"id":"IT583","name":"Bandito","type":"rail","geo":{"lat":44.722041,"lng":7.819398},"importance":4},{"id":"IT584","name":"Baragiano-Ruoti","type":"rail","geo":{"lat":40.694148,"lng":15.570943},"importance":4},{"id":"IT585","name":"Baranello","type":"rail","geo":{"lat":41.517818,"lng":14.596604},"importance":4},{"id":"ITM308","name":"Barberini","type":"metro","geo":{"lat":41.9038098,"lng":12.4886166},"importance":4},{"id":"IT587","name":"Barberino Di Val D'Elsa","type":"rail","geo":{"lat":43.499343,"lng":11.111233},"importance":4},{"id":"IT588","name":"Barbianello","type":"rail","geo":{"lat":45.07231,"lng":9.20552},"importance":4},{"id":"IT589","name":"Barbiano","type":"rail","geo":{"lat":44.3872,"lng":11.87809},"importance":4},{"id":"IT591","name":"Barcellona-Castroreale","type":"rail","geo":{"lat":38.153786,"lng":15.199627},"importance":4},{"id":"IT593","name":"Bardonecchia","type":"rail","geo":{"lat":45.07636,"lng":6.709861},"importance":4},{"id":"IT594","name":"Barga Gallicano","type":"rail","geo":{"lat":44.068128,"lng":10.452198},"importance":4},{"id":"IT595","name":"Bari Centrale","type":"rail","geo":{"lat":41.117974,"lng":16.870113},"importance":2},{"id":"IT3234","name":"Bari Loseto","type":"rail","geo":{"lat":41.04381,"lng":16.84723},"importance":4},{"id":"IT555","name":"Bari Palese Macchie","type":"rail","geo":{"lat":41.149238,"lng":16.780286},"importance":4},{"id":"IT557","name":"Bari Parco Sud","type":"rail","geo":{"lat":41.115154,"lng":16.898035},"importance":4},{"id":"IT3233","name":"Bari S.Rita","type":"rail","geo":{"lat":41.07307,"lng":16.85142},"importance":4},{"id":"IT560","name":"Bari S.Spirito","type":"rail","geo":{"lat":41.159807,"lng":16.746394},"importance":4},{"id":"IT562","name":"Bari Torre A Mare","type":"rail","geo":{"lat":41.082756,"lng":16.994611},"importance":4},{"id":"IT2699","name":"Bari Torre Quetta","type":"rail","geo":{"lat":41.111582,"lng":16.915807},"importance":4},{"id":"IT2468","name":"Bari Villaggio Del Lavoratore","type":"rail","geo":{"lat":41.104217,"lng":16.822682},"importance":4},{"id":"IT563","name":"Bari Zona Industriale","type":"rail","geo":{"lat":41.128027,"lng":16.82658},"importance":4},{"id":"IT596","name":"Baricetta","type":"rail","geo":{"lat":45.060818,"lng":11.995351},"importance":4},{"id":"IT597","name":"Barile","type":"rail","geo":{"lat":40.943139,"lng":15.671126},"importance":4},{"id":"IT598","name":"Barletta","type":"rail","geo":{"lat":41.315406,"lng":16.278605},"importance":3},{"id":"IT599","name":"Baronissi","type":"rail","geo":{"lat":40.74586,"lng":14.772484},"importance":4},{"id":"IT601","name":"Basiliano","type":"rail","geo":{"lat":46.012804,"lng":13.109132},"importance":4},{"id":"IT602","name":"Bassano Del Grappa","type":"rail","geo":{"lat":45.766654,"lng":11.741268},"importance":3},{"id":"IT604","name":"Bassano Romano","type":"rail","importance":4},{"id":"IT605","name":"Bastia","type":"rail","geo":{"lat":43.071193,"lng":12.547746},"importance":4},{"id":"IT608","name":"Battaglia Terme","type":"rail","geo":{"lat":45.29143,"lng":11.77839},"importance":4},{"id":"IT14","name":"Battipaglia","type":"rail","geo":{"lat":40.605619,"lng":14.983147},"importance":3},{"id":"ITM326","name":"Battistini","type":"metro","geo":{"lat":41.90612,"lng":12.4151835},"importance":4},{"id":"IT5420","name":"Baucca-Garavelle","type":"rail","importance":4},{"id":"IT610","name":"Baveno","type":"rail","geo":{"lat":45.909154,"lng":8.502079},"importance":4},{"id":"IT611","name":"Bazzana","type":"rail","geo":{"lat":44.777041,"lng":8.40151},"importance":4},{"id":"IT3179","name":"Bazzano","type":"rail","geo":{"lat":44.508616,"lng":11.078232},"importance":4},{"id":"IT612","name":"Beaulard","type":"rail","geo":{"lat":45.046629,"lng":6.759932},"importance":4},{"id":"IT613","name":"Beffi","type":"rail","geo":{"lat":42.19692,"lng":13.660761},"importance":4},{"id":"IT614","name":"Beinette","type":"rail","importance":4},{"id":"IT615","name":"Belgioioso","type":"rail","geo":{"lat":45.16441,"lng":9.31688},"importance":4},{"id":"IT616","name":"Belgirate","type":"rail","geo":{"lat":45.84334,"lng":8.5711},"importance":4},{"id":"IT617","name":"Bella Muro","type":"rail","geo":{"lat":40.700977,"lng":15.542927},"importance":4},{"id":"IT618","name":"Bellano Tartavalle Terme","type":"rail","importance":4},{"id":"IT619","name":"Bellante Ripattone","type":"rail","geo":{"lat":42.705882,"lng":13.837985},"importance":4},{"id":"IT620","name":"Bellaria","type":"rail","geo":{"lat":44.150153,"lng":12.461055},"importance":4},{"id":"IT623","name":"Bellinzago","type":"rail","geo":{"lat":45.56668,"lng":8.627663},"importance":4},{"id":"IT624","name":"Bellisio Solfare","type":"rail","importance":4},{"id":"IT625","name":"Belluno","type":"rail","geo":{"lat":46.141474,"lng":12.209957},"importance":3},{"id":"IT15","name":"Belmonte Calabro","type":"rail","importance":4},{"id":"IT16","name":"Belvedere Marittimo","type":"rail","geo":{"lat":39.616576,"lng":15.853178},"importance":4},{"id":"IT626","name":"Benevento","type":"rail","geo":{"lat":41.14187,"lng":14.769514},"importance":3},{"id":"IT628","name":"Benevento Arco Traiano","type":"rail","geo":{"lat":41.134544,"lng":14.77988},"importance":4},{"id":"IT670","name":"Benevento Porta Rufina","type":"rail","importance":4},{"id":"ITM128","name":"Bengasi","type":"metro","geo":{"lat":45.0169671,"lng":7.6613021},"importance":4},{"id":"IT629","name":"Berceto","type":"rail","geo":{"lat":44.555912,"lng":9.931761},"importance":4},{"id":"IT630","name":"Berchidda","type":"rail","geo":{"lat":40.772052,"lng":9.181317},"importance":4},{"id":"IT631","name":"Bergamasco","type":"rail","importance":4},{"id":"IT632","name":"Bergamo","type":"rail","geo":{"lat":45.69043,"lng":9.675045},"importance":2},{"id":"IT3183","name":"Bergamo Ospedale","type":"rail","geo":{"lat":45.688214,"lng":9.638683},"importance":4},{"id":"IT633","name":"Bernalda","type":"rail","geo":{"lat":40.397748,"lng":16.682347},"importance":4},{"id":"ITM16","name":"Bernini","type":"metro","geo":{"lat":45.0760134,"lng":7.655793},"importance":4},{"id":"IT634","name":"Besana","type":"rail","geo":{"lat":45.702742,"lng":9.283038},"importance":4},{"id":"IT635","name":"Besnate","type":"rail","geo":{"lat":45.695496,"lng":8.761251},"importance":4},{"id":"IT636","name":"Besozzo","type":"rail","geo":{"lat":45.842335,"lng":8.663223},"importance":4},{"id":"IT200","name":"Bevera","type":"rail","geo":{"lat":43.825249,"lng":7.578995},"importance":4},{"id":"IT638","name":"Bevilacqua","type":"rail","geo":{"lat":45.23031,"lng":11.396674},"importance":4},{"id":"IT639","name":"Biagioni Lagacci","type":"rail","geo":{"lat":44.086352,"lng":10.948269},"importance":4},{"id":"IT17","name":"Bianco","type":"rail","geo":{"lat":38.08912,"lng":16.153176},"importance":4},{"id":"IT640","name":"Bianze'","type":"rail","geo":{"lat":45.309493,"lng":8.115523},"importance":4},{"id":"IT641","name":"Bianzone","type":"rail","geo":{"lat":46.179468,"lng":10.112453},"importance":4},{"id":"IT642","name":"Biassono-Lesmo Parco","type":"rail","geo":{"lat":45.63221,"lng":9.298298},"importance":4},{"id":"IT646","name":"Bibiana","type":"rail","importance":4},{"id":"IT647","name":"Bicocca","type":"rail","geo":{"lat":37.460622,"lng":15.044376},"importance":4},{"id":"ITM248","name":"Bicocca","type":"metro","geo":{"lat":45.5147332,"lng":9.2053603},"importance":4},{"id":"IT649","name":"Biella S.Paolo","type":"rail","geo":{"lat":45.557156,"lng":8.067353},"importance":3},{"id":"IT650","name":"Biforco","type":"rail","geo":{"lat":44.068442,"lng":11.602383},"importance":4},{"id":"ITM246","name":"Bignami","type":"metro","geo":{"lat":45.5267835,"lng":9.2121828},"importance":4},{"id":"IT652","name":"Bisceglie","type":"rail","geo":{"lat":41.23553,"lng":16.499563},"importance":4},{"id":"ITM134","name":"Bisceglie","type":"metro","geo":{"lat":45.4553979,"lng":9.1129252},"importance":4},{"id":"IT653","name":"Bistagno","type":"rail","geo":{"lat":44.659257,"lng":8.372061},"importance":4},{"id":"IT654","name":"Bisuschio-Viggiu'","type":"rail","geo":{"lat":45.870714,"lng":8.887792},"importance":4},{"id":"IT655","name":"Bitetto Palo Del Colle","type":"rail","geo":{"lat":41.045716,"lng":16.743799},"importance":4},{"id":"IT3235","name":"Bitritto","type":"rail","geo":{"lat":41.04381,"lng":16.83277},"importance":4},{"id":"IT520","name":"Bivio D'Aurisina","type":"rail","geo":{"lat":45.754069,"lng":13.656148},"importance":4},{"id":"IT213","name":"Bogliasco","type":"rail","geo":{"lat":44.379209,"lng":9.066053},"importance":4},{"id":"IT681","name":"Boiano","type":"rail","geo":{"lat":41.487789,"lng":14.4744},"importance":4},{"id":"IT682","name":"Bolgheri","type":"rail","geo":{"lat":43.244664,"lng":10.550549},"importance":4},{"id":"ITM285","name":"Bolivar","type":"metro","geo":{"lat":45.455343,"lng":9.1531255},"importance":4},{"id":"ITM10","name":"Bologna","type":"metro","geo":{"lat":41.9136627,"lng":12.5208145},"importance":4},{"id":"IT672","name":"Bologna Borgo Panigale","type":"rail","geo":{"lat":44.515007,"lng":11.284735},"importance":4},{"id":"IT942","name":"Bologna C.Le/Av","type":"rail","geo":{"lat":44.507175,"lng":11.342867},"importance":4},{"id":"IT683","name":"Bologna Centrale","type":"rail","geo":{"lat":44.505907,"lng":11.343369},"importance":1},{"id":"IT673","name":"Bologna Corticella","type":"rail","geo":{"lat":44.551962,"lng":11.354009},"importance":4},{"id":"IT1249","name":"Bologna Fiere","type":"rail","geo":{"lat":44.512632,"lng":11.36894},"importance":4},{"id":"IT1709","name":"Bologna Mazzini","type":"rail","geo":{"lat":44.482702,"lng":11.376326},"importance":4},{"id":"IT679","name":"Bologna S.Ruffillo","type":"rail","geo":{"lat":44.462731,"lng":11.372813},"importance":4},{"id":"IT2003","name":"Bologna S.Vitale","type":"rail","geo":{"lat":44.496331,"lng":11.373234},"importance":4},{"id":"ITM65","name":"Bolognetta","type":"metro","geo":{"lat":41.8651593,"lng":12.6809329},"importance":4},{"id":"IT685","name":"Bolzano","type":"rail","geo":{"lat":46.496657,"lng":11.358361},"importance":2},{"id":"IT1966","name":"Bolzano Casanova","type":"rail","geo":{"lat":46.480093,"lng":11.315276},"importance":4},{"id":"IT686","name":"Bolzano Novarese","type":"rail","geo":{"lat":45.759362,"lng":8.440761},"importance":4},{"id":"IT687","name":"Bolzano Sud","type":"rail","geo":{"lat":46.473613,"lng":11.32623},"importance":4},{"id":"IT214","name":"Bonassola","type":"rail","importance":4},{"id":"IT689","name":"Bonefro S.Croce","type":"rail","geo":{"lat":41.710696,"lng":14.860726},"importance":4},{"id":"IT690","name":"Bonferraro","type":"rail","geo":{"lat":45.185637,"lng":11.009251},"importance":4},{"id":"ITM225","name":"Bonola","type":"metro","geo":{"lat":45.4970317,"lng":9.1101295},"importance":4},{"id":"IT691","name":"Bonorva","type":"rail","geo":{"lat":40.417767,"lng":8.760714},"importance":4},{"id":"IT215","name":"Bordighera","type":"rail","geo":{"lat":43.778475,"lng":7.663628},"importance":4},{"id":"IT5035","name":"Borgaro","type":"rail","geo":{"lat":45.153217,"lng":7.64886},"importance":4},{"id":"ITM66","name":"Borghesiana","type":"metro","geo":{"lat":41.8646918,"lng":12.6672618},"importance":4},{"id":"IT693","name":"Borghetto Parmense","type":"rail","importance":4},{"id":"IT216","name":"Borghetto S.Spirito","type":"rail","geo":{"lat":44.109013,"lng":8.242346},"importance":4},{"id":"IT694","name":"Borghetto Sull'Adige","type":"rail","geo":{"lat":45.696826,"lng":10.926933},"importance":4},{"id":"IT217","name":"Borgio Verezzi","type":"rail","geo":{"lat":44.15773,"lng":8.309083},"importance":4},{"id":"IT695","name":"Borgo","type":"rail","geo":{"lat":40.8459,"lng":14.7842},"importance":4},{"id":"ITM141","name":"Borgo","type":"metro","geo":{"lat":37.5217643,"lng":15.0846805},"importance":4},{"id":"IT696","name":"Borgo A Buggiano","type":"rail","geo":{"lat":43.880717,"lng":10.730091},"importance":4},{"id":"IT697","name":"Borgo A Mozzano","type":"rail","geo":{"lat":43.977205,"lng":10.54129},"importance":4},{"id":"IT218","name":"Borgo Fornari Per Voltaggio","type":"rail","geo":{"lat":44.588956,"lng":8.938048},"importance":4},{"id":"IT698","name":"Borgo Lavezzaro","type":"rail","geo":{"lat":45.31876,"lng":8.7032},"importance":4},{"id":"IT699","name":"Borgo Revel","type":"rail","geo":{"lat":45.190041,"lng":8.018396},"importance":4},{"id":"IT700","name":"Borgo S.Dalmazzo","type":"rail","geo":{"lat":44.326373,"lng":7.486102},"importance":4},{"id":"IT701","name":"Borgo S.Lorenzo","type":"rail","geo":{"lat":43.959664,"lng":11.38031},"importance":4},{"id":"IT702","name":"Borgo S.Lorenzo Rimorelli","type":"rail","geo":{"lat":43.953367,"lng":11.399752},"importance":4},{"id":"IT703","name":"Borgo S.Martino","type":"rail","geo":{"lat":45.087084,"lng":8.520668},"importance":4},{"id":"IT704","name":"Borgo Ticino","type":"rail","geo":{"lat":45.691949,"lng":8.602492},"importance":4},{"id":"IT705","name":"Borgo Val Di Taro","type":"rail","geo":{"lat":44.486522,"lng":9.781493},"importance":4},{"id":"IT706","name":"Borgo Valsugana Centro","type":"rail","geo":{"lat":46.051456,"lng":11.454164},"importance":4},{"id":"IT3503","name":"Borgo Valsugana Est","type":"rail","geo":{"lat":46.052484,"lng":11.46336},"importance":4},{"id":"IT707","name":"Borgo Vercelli","type":"rail","geo":{"lat":45.359254,"lng":8.461483},"importance":4},{"id":"IT1547","name":"Borgochiesanuova","type":"rail","geo":{"lat":45.141689,"lng":10.766297},"importance":4},{"id":"IT709","name":"Borgofranco","type":"rail","importance":4},{"id":"IT710","name":"Borgolombardo","type":"rail","geo":{"lat":45.404507,"lng":9.270467},"importance":4},{"id":"IT711","name":"Borgomanero","type":"rail","geo":{"lat":45.700938,"lng":8.467752},"importance":4},{"id":"IT712","name":"Borgone","type":"rail","geo":{"lat":45.123381,"lng":7.236078},"importance":4},{"id":"IT713","name":"Borgonuovo","type":"rail","geo":{"lat":44.443243,"lng":11.274975},"importance":4},{"id":"IT714","name":"Borgoratto","type":"rail","geo":{"lat":44.836008,"lng":8.538192},"importance":4},{"id":"IT715","name":"Borgosesia","type":"rail","importance":4},{"id":"IT716","name":"Borore","type":"rail","geo":{"lat":40.218977,"lng":8.809362},"importance":4},{"id":"IT717","name":"Boschi S.Anna","type":"rail","geo":{"lat":45.217301,"lng":11.362303},"importance":4},{"id":"IT5023","name":"Bosconero","type":"rail","geo":{"lat":45.267514,"lng":7.761964},"importance":4},{"id":"IT21","name":"Botricello","type":"rail","geo":{"lat":38.934089,"lng":16.85748},"importance":4},{"id":"IT5075","name":"Bottenicco Zona Industriale","type":"rail","geo":{"lat":46.090344,"lng":13.390942},"importance":4},{"id":"IT22","name":"Bova Marina","type":"rail","geo":{"lat":37.930383,"lng":15.923976},"importance":4},{"id":"IT23","name":"Bovalino","type":"rail","geo":{"lat":38.150153,"lng":16.18159},"importance":4},{"id":"IT722","name":"Bovino Deliceto","type":"rail","importance":4},{"id":"IT724","name":"Bovolone","type":"rail","geo":{"lat":45.254654,"lng":11.124421},"importance":4},{"id":"IT725","name":"Bozzolo","type":"rail","geo":{"lat":45.107185,"lng":10.472751},"importance":4},{"id":"IT727","name":"Bra","type":"rail","geo":{"lat":44.693757,"lng":7.848553},"importance":4},{"id":"IT728","name":"Bracciano","type":"rail","geo":{"lat":42.103755,"lng":12.173283},"importance":4},{"id":"IT3437","name":"Bragno","type":"rail","geo":{"lat":44.371683,"lng":8.304475},"importance":4},{"id":"IT24","name":"Brancaleone","type":"rail","geo":{"lat":37.965475,"lng":16.103297},"importance":4},{"id":"IT729","name":"Brandizzo","type":"rail","geo":{"lat":45.178753,"lng":7.841202},"importance":4},{"id":"IT730","name":"Breil Sur Roya","type":"rail","geo":{"lat":43.944057,"lng":7.516446},"importance":4},{"id":"IT731","name":"Brenna-Alzate","type":"rail","geo":{"lat":45.75417,"lng":9.18327},"importance":4},{"id":"IT732","name":"Brennero","type":"rail","geo":{"lat":47.00242,"lng":11.504898},"importance":4},{"id":"ITM173","name":"Brenta","type":"metro","geo":{"lat":45.4427688,"lng":9.2185197},"importance":4},{"id":"IT734","name":"Brescia","type":"rail","geo":{"lat":45.53252,"lng":10.21297},"importance":2},{"id":"ITM98","name":"Bresciadue","type":"metro","geo":{"lat":45.5263665,"lng":10.2124713},"importance":4},{"id":"IT736","name":"Bressana Argine","type":"rail","geo":{"lat":45.07284,"lng":9.13703},"importance":4},{"id":"IT737","name":"Bressana Bottarone","type":"rail","geo":{"lat":45.086284,"lng":9.110756},"importance":4},{"id":"IT738","name":"Bressanone","type":"rail","geo":{"lat":46.709982,"lng":11.650026},"importance":4},{"id":"IT25","name":"Briatico","type":"rail","geo":{"lat":38.725254,"lng":16.025349},"importance":4},{"id":"IT740","name":"Bricherasio","type":"rail","importance":4},{"id":"ITM94","name":"Brignole","type":"metro","geo":{"lat":44.407269,"lng":8.9485007},"importance":4},{"id":"ITM154","name":"Brin","type":"metro","geo":{"lat":44.4279912,"lng":8.895685},"importance":4},{"id":"IT741","name":"Brindisi","type":"rail","geo":{"lat":40.634287,"lng":17.939289},"importance":3},{"id":"IT2723","name":"Brindisi Cittadella Della Ricerca","type":"rail","geo":{"lat":40.589107,"lng":17.848014},"importance":4},{"id":"IT2786","name":"Brindisi Perrino","type":"rail","geo":{"lat":40.628072,"lng":17.914333},"importance":4},{"id":"IT743","name":"Briona","type":"rail","importance":4},{"id":"IT744","name":"Brisighella","type":"rail","geo":{"lat":44.220516,"lng":11.769757},"importance":4},{"id":"IT745","name":"Brolo Ficarra","type":"rail","geo":{"lat":38.159054,"lng":14.830242},"importance":4},{"id":"IT746","name":"Broni","type":"rail","geo":{"lat":45.066239,"lng":9.258938},"importance":4},{"id":"IT747","name":"Bronzolo","type":"rail","importance":4},{"id":"IT748","name":"Brozolo","type":"rail","importance":4},{"id":"IT750","name":"Brucoli","type":"rail","geo":{"lat":37.271531,"lng":15.186878},"importance":4},{"id":"IT751","name":"Brunico","type":"rail","geo":{"lat":46.794482,"lng":11.929926},"importance":4},{"id":"IT1967","name":"Brunico Nord","type":"rail","geo":{"lat":46.800538,"lng":11.936419},"importance":4},{"id":"IT752","name":"Bruno","type":"rail","importance":4},{"id":"IT753","name":"Bruzolo Di Susa","type":"rail","geo":{"lat":45.131215,"lng":7.201552},"importance":4},{"id":"IT754","name":"Buccino S.Gregorio Magno","type":"rail","geo":{"lat":40.601034,"lng":15.373948},"importance":4},{"id":"IT755","name":"Bucine","type":"rail","geo":{"lat":43.480413,"lng":11.617583},"importance":4},{"id":"IT756","name":"Budoia Polcenigo","type":"rail","geo":{"lat":46.031333,"lng":12.537649},"importance":4},{"id":"IT757","name":"Bugnara","type":"rail","geo":{"lat":42.031133,"lng":13.861848},"importance":4},{"id":"ITM232","name":"Buonarroti","type":"metro","geo":{"lat":45.4704169,"lng":9.155316},"importance":4},{"id":"IT758","name":"Buonconvento","type":"rail","geo":{"lat":43.135379,"lng":11.483568},"importance":4},{"id":"IT760","name":"Buronzo","type":"rail","importance":4},{"id":"IT2386","name":"Busa Di Vigonza","type":"rail","geo":{"lat":45.429874,"lng":11.951813},"importance":4},{"id":"IT219","name":"Busalla","type":"rail","geo":{"lat":44.575455,"lng":8.943436},"importance":4},{"id":"IT761","name":"Busca","type":"rail","geo":{"lat":44.520578,"lng":7.481549},"importance":4},{"id":"IT762","name":"Busche Lentiai Mel","type":"rail","geo":{"lat":46.04003,"lng":11.979362},"importance":4},{"id":"ITM119","name":"Bussero","type":"metro","geo":{"lat":45.5254191,"lng":9.3758581},"importance":4},{"id":"IT763","name":"Busseto","type":"rail","geo":{"lat":44.974691,"lng":10.038909},"importance":4},{"id":"IT764","name":"Bussi","type":"rail","geo":{"lat":42.194229,"lng":13.848965},"importance":4},{"id":"IT765","name":"Bussoleno","type":"rail","geo":{"lat":45.139643,"lng":7.14474},"importance":4},{"id":"IT766","name":"Busto Arsizio","type":"rail","geo":{"lat":45.61593,"lng":8.865897},"importance":3},{"id":"IT768","name":"Buttafava","type":"rail","geo":{"lat":45.621426,"lng":9.3013},"importance":4},{"id":"IT769","name":"Buttapietra","type":"rail","geo":{"lat":45.338781,"lng":10.988063},"importance":4},{"id":"IT770","name":"Buttrio","type":"rail","geo":{"lat":46.012434,"lng":13.329449},"importance":4},{"id":"ITM249","name":"Ca' Granda - Pratocentenaro","type":"metro","geo":{"lat":45.5072418,"lng":9.201118},"importance":4},{"id":"IT778","name":"Ca` Di Boschetti","type":"rail","geo":{"lat":44.118221,"lng":9.864074},"importance":4},{"id":"IT785","name":"Cadeo","type":"rail","geo":{"lat":44.967288,"lng":9.853192},"importance":4},{"id":"ITM200","name":"Cadorna FN","type":"metro","importance":4,"geo":{"lat":45.4682,"lng":9.175883}},{"id":"IT787","name":"Cagliari","type":"rail","geo":{"lat":39.215977,"lng":9.108262},"importance":2},{"id":"IT788","name":"Cagliari Elmas","type":"rail","geo":{"lat":39.264408,"lng":9.045613},"importance":4},{"id":"IT3164","name":"Cagliari S.Gilla","type":"rail","geo":{"lat":39.226538,"lng":9.097384},"importance":4},{"id":"ITM186","name":"Caiazzo","type":"metro","geo":{"lat":45.4853047,"lng":9.2094139},"importance":4},{"id":"IT790","name":"Cairo Montenotte","type":"rail","geo":{"lat":44.394059,"lng":8.278742},"importance":4},{"id":"ITM215","name":"Cairoli","type":"metro","geo":{"lat":45.4684915,"lng":9.1819853},"importance":4},{"id":"IT791","name":"Cala Sabina","type":"rail","geo":{"lat":41.011019,"lng":9.588104},"importance":4},{"id":"IT792","name":"Calalzo Pieve Cadore Cortina","type":"rail","geo":{"lat":46.443918,"lng":12.388624},"importance":4},{"id":"IT793","name":"Calamandrana","type":"rail","importance":4},{"id":"IT794","name":"Calatabiano","type":"rail","geo":{"lat":37.814816,"lng":15.226539},"importance":4},{"id":"IT795","name":"Calatafimi","type":"rail","geo":{"lat":37.939543,"lng":12.855666},"importance":4},{"id":"IT797","name":"Calceranica","type":"rail","geo":{"lat":46.007312,"lng":11.240719},"importance":4},{"id":"IT801","name":"Calde'","type":"rail","geo":{"lat":45.945709,"lng":8.663246},"importance":4},{"id":"IT3537","name":"Calderara-Bargellino","type":"rail","geo":{"lat":44.544207,"lng":11.267472},"importance":4},{"id":"IT803","name":"Caldonazzo","type":"rail","geo":{"lat":45.997476,"lng":11.264562},"importance":4},{"id":"IT804","name":"Calenzano","type":"rail","geo":{"lat":43.856416,"lng":11.145214},"importance":4},{"id":"ITM286","name":"California","type":"metro","geo":{"lat":45.4577548,"lng":9.1606657},"importance":4},{"id":"IT3223","name":"Calliano","type":"rail","geo":{"lat":45.937001,"lng":11.095018},"importance":4},{"id":"IT807","name":"Calolziocorte Olginate","type":"rail","geo":{"lat":45.801753,"lng":9.427144},"importance":4},{"id":"IT26","name":"Calopezzati","type":"rail","importance":4},{"id":"IT809","name":"Caltagirone","type":"rail","geo":{"lat":37.229153,"lng":14.527869},"importance":4},{"id":"IT772","name":"Caltanissetta Centrale","type":"rail","geo":{"lat":37.488496,"lng":14.057519},"importance":3},{"id":"IT773","name":"Caltanissetta Xirbi","type":"rail","geo":{"lat":37.536392,"lng":14.056996},"importance":4},{"id":"IT810","name":"Caltignaga","type":"rail","geo":{"lat":45.519173,"lng":8.591613},"importance":4},{"id":"IT811","name":"Calusco","type":"rail","geo":{"lat":45.68428,"lng":9.47083},"importance":4},{"id":"IT812","name":"Caluso","type":"rail","geo":{"lat":45.303193,"lng":7.90257},"importance":4},{"id":"IT813","name":"Calvisano","type":"rail","geo":{"lat":45.346561,"lng":10.34921},"importance":4},{"id":"IT814","name":"Camaiore Lido Capezzano","type":"rail","geo":{"lat":43.91219,"lng":10.247543},"importance":4},{"id":"IT817","name":"Cambiano Santena","type":"rail","geo":{"lat":44.966381,"lng":7.773217},"importance":4},{"id":"IT2439","name":"Camerano Aspio","type":"rail","geo":{"lat":43.529724,"lng":13.52069},"importance":4},{"id":"IT818","name":"Cammarata S.Giovanni Gemini","type":"rail","geo":{"lat":37.653328,"lng":13.673794},"importance":4},{"id":"IT819","name":"Camnago-Lentate","type":"rail","geo":{"lat":45.66837,"lng":9.133284},"importance":4},{"id":"IT221","name":"Camogli S.Fruttuoso","type":"rail","geo":{"lat":44.348017,"lng":9.156544},"importance":4},{"id":"IT820","name":"Campagna Serre Persano","type":"rail","geo":{"lat":40.595682,"lng":15.113941},"importance":4},{"id":"IT822","name":"Campello Sul Clitunno","type":"rail","geo":{"lat":42.822837,"lng":12.761427},"importance":4},{"id":"IT823","name":"Campiglia Marittima","type":"rail","geo":{"lat":43.017269,"lng":10.586636},"importance":4},{"id":"IT2174","name":"Campo Di Carne","type":"rail","geo":{"lat":41.552088,"lng":12.634976},"importance":4},{"id":"IT824","name":"Campo Di Giove","type":"rail","geo":{"lat":42.008134,"lng":14.041552},"importance":4},{"id":"IT771","name":"Campo Di Giove-Monte Maiella","type":"rail","geo":{"lat":41.993296,"lng":14.0691},"importance":4},{"id":"IT826","name":"Campo Di Trens","type":"rail","geo":{"lat":46.869223,"lng":11.488315},"importance":4},{"id":"IT222","name":"Campo Ligure-Masone","type":"rail","geo":{"lat":44.530916,"lng":8.700888},"importance":4},{"id":"IT827","name":"Campobasso","type":"rail","geo":{"lat":41.558212,"lng":14.663815},"importance":3},{"id":"IT828","name":"Campobello Di Mazara","type":"rail","geo":{"lat":37.636243,"lng":12.733253},"importance":4},{"id":"IT829","name":"Campobello Ravanusa","type":"rail","geo":{"lat":37.265672,"lng":13.946256},"importance":4},{"id":"IT831","name":"Campodarsego","type":"rail","geo":{"lat":45.505661,"lng":11.900902},"importance":4},{"id":"IT832","name":"Campofelice","type":"rail","geo":{"lat":37.992404,"lng":13.876701},"importance":4},{"id":"IT833","name":"Campofranco","type":"rail","geo":{"lat":37.509662,"lng":13.68678},"importance":4},{"id":"IT835","name":"Campoleone","type":"rail","geo":{"lat":41.642536,"lng":12.648392},"importance":4},{"id":"IT836","name":"Campolieto Monacilioni","type":"rail","importance":4},{"id":"IT838","name":"Campomarino","type":"rail","geo":{"lat":41.957295,"lng":15.042338},"importance":4},{"id":"IT3421","name":"Campomigliaio","type":"rail","geo":{"lat":43.93722,"lng":11.303601},"importance":4},{"id":"IT27","name":"Campora S.Giovanni Serra Aiello","type":"rail","geo":{"lat":39.066062,"lng":16.091022},"importance":4},{"id":"IT840","name":"Camporgiano","type":"rail","geo":{"lat":44.161446,"lng":10.334849},"importance":4},{"id":"IT842","name":"Camposampiero","type":"rail","geo":{"lat":45.568868,"lng":11.928604},"importance":4},{"id":"IT843","name":"Camposanto","type":"rail","geo":{"lat":44.788413,"lng":11.143075},"importance":4},{"id":"ITM298","name":"Campus Universitario","type":"metro","geo":{"lat":38.8659405,"lng":16.5784516},"importance":4},{"id":"IT844","name":"Camucia Cortona","type":"rail","geo":{"lat":43.261632,"lng":11.971169},"importance":4},{"id":"IT845","name":"Canaro","type":"rail","geo":{"lat":44.92297,"lng":11.67523},"importance":4},{"id":"IT847","name":"Cancelliera","type":"rail","geo":{"lat":41.711482,"lng":12.621561},"importance":4},{"id":"IT848","name":"Cancello","type":"rail","geo":{"lat":40.994233,"lng":14.419613},"importance":4},{"id":"IT849","name":"Cancello Arnone","type":"rail","importance":4},{"id":"IT852","name":"Candelo","type":"rail","geo":{"lat":45.547441,"lng":8.100108},"importance":4},{"id":"IT853","name":"Candia Canavese","type":"rail","geo":{"lat":45.329824,"lng":7.891826},"importance":4},{"id":"IT854","name":"Candia Lomellina","type":"rail","geo":{"lat":45.179915,"lng":8.59316},"importance":4},{"id":"IT856","name":"Candiolo","type":"rail","importance":4},{"id":"IT858","name":"Canegrate","type":"rail","geo":{"lat":45.569349,"lng":8.926734},"importance":4},{"id":"IT859","name":"Canelli","type":"rail","importance":4},{"id":"ITM328","name":"Canepari","type":"metro","geo":{"lat":44.4327982,"lng":8.8936044},"importance":4},{"id":"IT860","name":"Canetra","type":"rail","geo":{"lat":42.391623,"lng":13.029043},"importance":4},{"id":"IT861","name":"Canicatti'","type":"rail","geo":{"lat":37.359898,"lng":13.855264},"importance":4},{"id":"IT863","name":"Canistro","type":"rail","geo":{"lat":41.940687,"lng":13.412172},"importance":4},{"id":"IT865","name":"Canne Della Battaglia","type":"rail","geo":{"lat":41.294519,"lng":16.146274},"importance":4},{"id":"IT866","name":"Canneto Sull'Oglio","type":"rail","geo":{"lat":45.15018,"lng":10.3717},"importance":4},{"id":"IT867","name":"Cannizzaro","type":"rail","geo":{"lat":37.546971,"lng":15.129807},"importance":4},{"id":"IT868","name":"Canosa Di Puglia","type":"rail","importance":4},{"id":"IT3181","name":"Cansano","type":"rail","importance":4},{"id":"IT3256","name":"Cansano Scavi Di Ocriticum","type":"rail","importance":4},{"id":"IT2974","name":"Cantello Gaggiolo","type":"rail","geo":{"lat":45.837818,"lng":8.907397},"importance":4},{"id":"IT872","name":"Cantu'","type":"rail","geo":{"lat":45.752399,"lng":9.130087},"importance":4},{"id":"IT873","name":"Cantu'-Cermenate","type":"rail","importance":4},{"id":"IT874","name":"Caorso","type":"rail","importance":4},{"id":"IT28","name":"Capaccio Roccadaspide","type":"rail","geo":{"lat":40.455624,"lng":15.013443},"importance":4},{"id":"IT3224","name":"Capaci","type":"rail","geo":{"lat":38.176889,"lng":13.238345},"importance":4},{"id":"IT876","name":"Capalbio","type":"rail","geo":{"lat":42.408245,"lng":11.371062},"importance":4},{"id":"IT877","name":"Capannelle","type":"rail","geo":{"lat":41.83074,"lng":12.568679},"importance":4},{"id":"IT878","name":"Capistrello","type":"rail","geo":{"lat":41.970518,"lng":13.399113},"importance":4},{"id":"IT30","name":"Capo Bonifati","type":"rail","geo":{"lat":39.558389,"lng":15.874183},"importance":4},{"id":"IT879","name":"Capo D'Orlando-Naso","type":"rail","geo":{"lat":38.158043,"lng":14.744865},"importance":4},{"id":"IT31","name":"Capo Spartivento","type":"rail","importance":4},{"id":"IT880","name":"Capocroce","type":"rail","geo":{"lat":41.400633,"lng":13.204673},"importance":4},{"id":"IT882","name":"Cappelle-Magliano","type":"rail","geo":{"lat":42.05956,"lng":13.372411},"importance":4},{"id":"IT883","name":"Capralba","type":"rail","geo":{"lat":45.443524,"lng":9.640019},"importance":4},{"id":"IT884","name":"Capranica-Sutri","type":"rail","geo":{"lat":42.245178,"lng":12.157403},"importance":4},{"id":"IT888","name":"Capriva","type":"rail","importance":4},{"id":"IT889","name":"Capua","type":"rail","geo":{"lat":41.101418,"lng":14.210516},"importance":4},{"id":"IT891","name":"Carate-Calo'","type":"rail","geo":{"lat":45.676425,"lng":9.252132},"importance":4},{"id":"IT892","name":"Caravaggio","type":"rail","geo":{"lat":45.4913,"lng":9.6378},"importance":4},{"id":"IT893","name":"Carbona","type":"rail","geo":{"lat":44.24686,"lng":11.096182},"importance":4},{"id":"IT968","name":"Carbonia Serbariu","type":"rail","importance":4},{"id":"IT894","name":"Carbonia Stato","type":"rail","geo":{"lat":39.163568,"lng":8.513298},"importance":4},{"id":"ITM116","name":"Carducci-Molinette","type":"metro","geo":{"lat":45.0424484,"lng":7.6711553},"importance":4},{"id":"IT898","name":"Carentino","type":"rail","importance":4},{"id":"IT34","name":"Cariati","type":"rail","geo":{"lat":39.49674,"lng":16.952},"importance":4},{"id":"IT899","name":"Carimate","type":"rail","importance":4},{"id":"IT900","name":"Carini","type":"rail","geo":{"lat":38.147417,"lng":13.18663},"importance":4},{"id":"IT3442","name":"Carini Torre Ciachea","type":"rail","geo":{"lat":38.163416,"lng":13.218283},"importance":4},{"id":"IT902","name":"Carmagnola","type":"rail","geo":{"lat":44.847063,"lng":7.72777},"importance":4},{"id":"IT904","name":"Carmignano Di Brenta","type":"rail","geo":{"lat":45.621465,"lng":11.714771},"importance":4},{"id":"IT905","name":"Carnate Usmate","type":"rail","geo":{"lat":45.653188,"lng":9.374939},"importance":4},{"id":"IT906","name":"Carnia","type":"rail","geo":{"lat":46.373629,"lng":13.133163},"importance":4},{"id":"IT908","name":"Caronia","type":"rail","geo":{"lat":38.034353,"lng":14.443766},"importance":4},{"id":"IT909","name":"Carovigno","type":"rail","geo":{"lat":40.737174,"lng":17.683779},"importance":4},{"id":"IT910","name":"Carovilli-Roccasicura","type":"rail","geo":{"lat":41.712435,"lng":14.299556},"importance":4},{"id":"IT911","name":"Carpane'-Valstagna","type":"rail","geo":{"lat":45.860084,"lng":11.661186},"importance":4},{"id":"IT912","name":"Carpi","type":"rail","geo":{"lat":44.782908,"lng":10.891878},"importance":4},{"id":"IT913","name":"Carpignano Sesia","type":"rail","geo":{"lat":45.528939,"lng":8.422905},"importance":4},{"id":"IT914","name":"Carpinone","type":"rail","geo":{"lat":41.588185,"lng":14.327031},"importance":4},{"id":"IT915","name":"Carrara Avenza","type":"rail","geo":{"lat":44.051176,"lng":10.062854},"importance":4},{"id":"IT916","name":"Carrito-Ortona","type":"rail","geo":{"lat":42.026062,"lng":13.720184},"importance":4},{"id":"IT918","name":"Carruba","type":"rail","geo":{"lat":37.68885,"lng":15.191292},"importance":4},{"id":"IT919","name":"Carsoli","type":"rail","geo":{"lat":42.095777,"lng":13.08064},"importance":4},{"id":"IT921","name":"Casabianca","type":"rail","geo":{"lat":41.788331,"lng":12.604424},"importance":4},{"id":"IT922","name":"Casacalenda Guardialfiera","type":"rail","geo":{"lat":41.738211,"lng":14.84945},"importance":4},{"id":"IT924","name":"Casalbordino Pollutri","type":"rail","geo":{"lat":42.193536,"lng":14.633306},"importance":4},{"id":"IT926","name":"Casalbuttano","type":"rail","geo":{"lat":45.255431,"lng":9.962431},"importance":4},{"id":"IT927","name":"Casale Monferrato","type":"rail","geo":{"lat":45.13393,"lng":8.460302},"importance":4},{"id":"IT929","name":"Casalecchio Di Reno","type":"rail","geo":{"lat":44.474277,"lng":11.2761},"importance":4},{"id":"IT3506","name":"Casalecchio Garibaldi","type":"rail","geo":{"lat":44.482989,"lng":11.272555},"importance":4},{"id":"IT930","name":"Casaleggio","type":"rail","geo":{"lat":45.491301,"lng":8.49037},"importance":4},{"id":"IT932","name":"Casaletto Vaprio","type":"rail","geo":{"lat":45.40864,"lng":9.63165},"importance":4},{"id":"IT934","name":"Casalmaggiore","type":"rail","geo":{"lat":44.993037,"lng":10.424866},"importance":4},{"id":"IT935","name":"Casalnuovo","type":"rail","geo":{"lat":40.915665,"lng":14.352868},"importance":4},{"id":"IT937","name":"Casalpusterlengo","type":"rail","geo":{"lat":45.18235,"lng":9.653666},"importance":4},{"id":"IT938","name":"Casarsa","type":"rail","geo":{"lat":45.953177,"lng":12.840461},"importance":4},{"id":"ITM99","name":"Casazza","type":"metro","geo":{"lat":45.575663,"lng":10.2305174},"importance":4},{"id":"IT939","name":"Cascina","type":"rail","geo":{"lat":43.6746,"lng":10.545311},"importance":4},{"id":"ITM120","name":"Cascina Antonietta","type":"metro","geo":{"lat":45.5419227,"lng":9.4237109},"importance":4},{"id":"ITM190","name":"Cascina Burrona","type":"metro","geo":{"lat":45.5173026,"lng":9.297902},"importance":4},{"id":"ITM110","name":"Cascina Gobba","type":"metro","geo":{"lat":45.5111613,"lng":9.2606304},"importance":4},{"id":"ITM325","name":"Cascine Vica (in costruzione)","type":"metro","geo":{"lat":45.0716021,"lng":7.5493281},"importance":4},{"id":"IT5036","name":"Caselle Torinese","type":"rail","geo":{"lat":45.176082,"lng":7.644519},"importance":4},{"id":"IT945","name":"Caserta","type":"rail","geo":{"lat":41.06885,"lng":14.328319},"importance":3},{"id":"IT947","name":"Casletto-Rogeno","type":"rail","geo":{"lat":45.786184,"lng":9.275391},"importance":4},{"id":"IT948","name":"Casorate Sempione","type":"rail","geo":{"lat":45.675026,"lng":8.743873},"importance":4},{"id":"IT949","name":"Casoria-Afragola","type":"rail","geo":{"lat":40.907598,"lng":14.298671},"importance":4},{"id":"IT950","name":"Cassago-Nibionno-Bulciago","type":"rail","geo":{"lat":45.746211,"lng":9.279966},"importance":4},{"id":"IT951","name":"Cassano D'Adda","type":"rail","geo":{"lat":45.514463,"lng":9.512782},"importance":4},{"id":"ITM124","name":"Cassina de' Pecchi","type":"metro","geo":{"lat":45.5216849,"lng":9.3620355},"importance":4},{"id":"IT954","name":"Cassine","type":"rail","geo":{"lat":44.75152,"lng":8.533618},"importance":4},{"id":"IT955","name":"Cassino","type":"rail","geo":{"lat":41.484525,"lng":13.83205},"importance":3},{"id":"IT956","name":"Cassola","type":"rail","geo":{"lat":45.732226,"lng":11.795824},"importance":4},{"id":"IT959","name":"Castagnaro","type":"rail","geo":{"lat":45.119324,"lng":11.40394},"importance":4},{"id":"IT960","name":"Castagneto Carducci-Donoratico","type":"rail","geo":{"lat":43.168712,"lng":10.563974},"importance":4},{"id":"IT961","name":"Castagno","type":"rail","geo":{"lat":44.012348,"lng":10.91539},"importance":4},{"id":"IT962","name":"Castagnole Delle Lanze","type":"rail","geo":{"lat":44.749345,"lng":8.152847},"importance":4},{"id":"IT964","name":"Casteggio","type":"rail","geo":{"lat":45.01724,"lng":9.12475},"importance":4},{"id":"IT967","name":"Castel D'Ario","type":"rail","geo":{"lat":45.183393,"lng":10.975319},"importance":4},{"id":"IT969","name":"Castel Di Sangro","type":"rail","geo":{"lat":41.786782,"lng":14.085954},"importance":4},{"id":"ITM14","name":"Castel Fusano","type":"metro","geo":{"lat":41.720476,"lng":12.309033},"importance":4},{"id":"IT970","name":"Castel Gandolfo","type":"rail","geo":{"lat":41.746935,"lng":12.652074},"importance":4},{"id":"IT971","name":"Castel Lagopesole","type":"rail","geo":{"lat":40.787579,"lng":15.75797},"importance":4},{"id":"IT972","name":"Castel Madama","type":"rail","geo":{"lat":41.988189,"lng":12.864943},"importance":4},{"id":"IT973","name":"Castel S.Angelo","type":"rail","geo":{"lat":42.379431,"lng":13.017617},"importance":4},{"id":"IT974","name":"Castel S.Giorgio Roccapiemonte","type":"rail","geo":{"lat":40.771553,"lng":14.694976},"importance":4},{"id":"IT975","name":"Castel S.Giovanni","type":"rail","geo":{"lat":45.063136,"lng":9.436781},"importance":4},{"id":"IT976","name":"Castel S.Pietro Terme","type":"rail","geo":{"lat":44.407242,"lng":11.597668},"importance":4},{"id":"IT978","name":"Castelbolognese-Riolo Terme","type":"rail","geo":{"lat":44.325391,"lng":11.804173},"importance":4},{"id":"IT980","name":"Casteldaccia","type":"rail","geo":{"lat":38.06009,"lng":13.536875},"importance":4},{"id":"IT981","name":"Casteldarne","type":"rail","geo":{"lat":46.797607,"lng":11.844077},"importance":4},{"id":"IT3505","name":"Casteldebole","type":"rail","geo":{"lat":44.503777,"lng":11.274635},"importance":4},{"id":"IT982","name":"Castelferretti-Falconara Aeroporto","type":"rail","geo":{"lat":43.607205,"lng":13.357697},"importance":4},{"id":"IT983","name":"Castelfiorentino","type":"rail","geo":{"lat":43.605414,"lng":10.968056},"importance":4},{"id":"IT985","name":"Castelfranco Emilia","type":"rail","geo":{"lat":44.597315,"lng":11.05639},"importance":4},{"id":"IT987","name":"Castelfranco Veneto","type":"rail","geo":{"lat":45.66663,"lng":11.934025},"importance":4},{"id":"IT988","name":"Castelguelfo","type":"rail","geo":{"lat":44.836434,"lng":10.176706},"importance":4},{"id":"IT989","name":"Castell'Alfero","type":"rail","importance":4},{"id":"IT991","name":"Castellalto Canzano","type":"rail","geo":{"lat":42.695738,"lng":13.792849},"importance":4},{"id":"IT958","name":"Castellammare Del Golfo","type":"rail","geo":{"lat":38.024433,"lng":12.91222},"importance":4},{"id":"IT992","name":"Castellammare Di Stabia","type":"rail","geo":{"lat":40.701241,"lng":14.483744},"importance":4},{"id":"IT993","name":"Castellaneta","type":"rail","geo":{"lat":40.619791,"lng":16.928933},"importance":4},{"id":"IT994","name":"Castellaneta Marina","type":"rail","geo":{"lat":40.481164,"lng":16.96544},"importance":4},{"id":"IT997","name":"Castelleone","type":"rail","geo":{"lat":45.301736,"lng":9.767701},"importance":4},{"id":"IT999","name":"Castelletto Ticino","type":"rail","geo":{"lat":45.7108,"lng":8.638431},"importance":4},{"id":"IT1000","name":"Castellina In Chianti-Monteriggioni","type":"rail","geo":{"lat":43.408718,"lng":11.212233},"importance":4},{"id":"IT1004","name":"Castello D'Annone","type":"rail","geo":{"lat":44.87881,"lng":8.312833},"importance":4},{"id":"IT957","name":"Castello Di Godego","type":"rail","geo":{"lat":45.688191,"lng":11.87768},"importance":4},{"id":"IT1005","name":"Castellucchio","type":"rail","geo":{"lat":45.1444,"lng":10.647451},"importance":4},{"id":"IT1007","name":"Castelmaggiore","type":"rail","geo":{"lat":44.576694,"lng":11.367667},"importance":4},{"id":"IT1009","name":"Castelnuovo Belbo","type":"rail","importance":4},{"id":"IT1010","name":"Castelnuovo Berardenga","type":"rail","geo":{"lat":43.306847,"lng":11.484912},"importance":4},{"id":"IT1011","name":"Castelnuovo Del Garda","type":"rail","geo":{"lat":45.430982,"lng":10.758384},"importance":4},{"id":"IT1012","name":"Castelnuovo Di Garfagnana","type":"rail","geo":{"lat":44.116494,"lng":10.409243},"importance":4},{"id":"IT1013","name":"Castelplanio Cupramontana","type":"rail","geo":{"lat":43.481533,"lng":13.08466},"importance":4},{"id":"IT1014","name":"Castelraimondo Camerino","type":"rail","geo":{"lat":43.210187,"lng":13.057203},"importance":4},{"id":"IT1015","name":"Castelrosso","type":"rail","geo":{"lat":45.201801,"lng":7.932168},"importance":4},{"id":"IT1016","name":"Castelvecchio Pascoli","type":"rail","geo":{"lat":44.090156,"lng":10.455034},"importance":4},{"id":"IT1018","name":"Castelvetrano","type":"rail","geo":{"lat":37.683703,"lng":12.798785},"importance":4},{"id":"IT1019","name":"Castelvetro","type":"rail","geo":{"lat":45.100097,"lng":9.982184},"importance":4},{"id":"IT1020","name":"Castiglion Del Lago","type":"rail","geo":{"lat":43.123127,"lng":12.032083},"importance":4},{"id":"IT1021","name":"Castiglion Fiorentino","type":"rail","geo":{"lat":43.340687,"lng":11.914369},"importance":4},{"id":"IT1022","name":"Castiglioncello","type":"rail","geo":{"lat":43.404616,"lng":10.414357},"importance":4},{"id":"IT38","name":"Castiglione Cosentino","type":"rail","geo":{"lat":39.355386,"lng":16.244096},"importance":4},{"id":"IT1025","name":"Castione Andevenno","type":"rail","geo":{"lat":46.161537,"lng":9.808064},"importance":4},{"id":"IT1026","name":"Castione Dei Marchesi","type":"rail","geo":{"lat":44.91516,"lng":10.044461},"importance":4},{"id":"ITM265","name":"Castro Pretorio","type":"metro","geo":{"lat":41.9063932,"lng":12.5057913},"importance":4},{"id":"IT1027","name":"Castro-Pofi-Vallecorsa","type":"rail","geo":{"lat":41.53286,"lng":13.410634},"importance":4},{"id":"IT1029","name":"Castronno","type":"rail","geo":{"lat":45.745254,"lng":8.810515},"importance":4},{"id":"IT1031","name":"Catania Acquicella","type":"rail","geo":{"lat":37.492632,"lng":15.074875},"importance":4},{"id":"IT3209","name":"Catania Aeroporto Fontanarossa","type":"rail","geo":{"lat":37.475191,"lng":15.061251},"importance":4},{"id":"IT1032","name":"Catania Centrale","type":"rail","geo":{"lat":37.506788,"lng":15.099913},"importance":2},{"id":"IT39","name":"Catanzaro","type":"rail","geo":{"lat":38.86551,"lng":16.562924},"importance":3},{"id":"ITM49","name":"Catanzaro Citt","type":"metro","geo":{"lat":38.9133216,"lng":16.5843273},"importance":4},{"id":"IT40","name":"Catanzaro Lido","type":"rail","geo":{"lat":38.821959,"lng":16.612796},"importance":4},{"id":"ITM133","name":"Catanzaro Lido","type":"metro","geo":{"lat":38.8232772,"lng":16.6127362},"importance":4},{"id":"ITM80","name":"Catanzaro Piazza Matteotti","type":"metro","geo":{"lat":38.9115528,"lng":16.5884604},"importance":4},{"id":"ITM83","name":"Catanzaro Pratica","type":"metro","geo":{"lat":38.9091023,"lng":16.5871875},"importance":4},{"id":"ITM50","name":"Catanzaro Sala","type":"metro","geo":{"lat":38.895699,"lng":16.598699},"importance":4},{"id":"IT1034","name":"Catenanuova-Centuripe","type":"rail","geo":{"lat":37.562031,"lng":14.68827},"importance":4},{"id":"IT1035","name":"Cattolica S.Giovanni Gabicce","type":"rail","geo":{"lat":43.960003,"lng":12.745141},"importance":4},{"id":"IT41","name":"Caulonia","type":"rail","geo":{"lat":38.343915,"lng":16.467102},"importance":4},{"id":"IT1037","name":"Cava Carbonara","type":"rail","geo":{"lat":45.147004,"lng":9.071468},"importance":4},{"id":"IT1038","name":"Cava Dei Tirreni","type":"rail","importance":4},{"id":"IT1040","name":"Cava Tigozzi","type":"rail","geo":{"lat":45.15671,"lng":9.95573},"importance":4},{"id":"IT1041","name":"Cavagnolo Brusasco","type":"rail","importance":4},{"id":"IT1042","name":"Cavalleggeri Aosta","type":"rail","geo":{"lat":40.81994,"lng":14.187771},"importance":4},{"id":"IT1043","name":"Cavallermaggiore","type":"rail","geo":{"lat":44.708208,"lng":7.691827},"importance":4},{"id":"IT1044","name":"Cavanella D'Adige","type":"rail","geo":{"lat":45.111167,"lng":12.249324},"importance":4},{"id":"IT1046","name":"Cavaria Oggiona Ierago","type":"rail","geo":{"lat":45.698145,"lng":8.803717},"importance":4},{"id":"IT1047","name":"Cavazzale","type":"rail","geo":{"lat":45.596289,"lng":11.570251},"importance":4},{"id":"IT227","name":"Cavi","type":"rail","geo":{"lat":44.293597,"lng":9.372607},"importance":4},{"id":"ITM267","name":"Cavour","type":"metro","geo":{"lat":41.8947564,"lng":12.4933395},"importance":4},{"id":"IT1049","name":"Ceccano","type":"rail","geo":{"lat":41.573705,"lng":13.336602},"importance":4},{"id":"IT1050","name":"Cecchina","type":"rail","geo":{"lat":41.692965,"lng":12.649602},"importance":4},{"id":"IT1051","name":"Cecina","type":"rail","geo":{"lat":43.310423,"lng":10.514192},"importance":4},{"id":"IT1053","name":"Cefalu'","type":"rail","geo":{"lat":38.032975,"lng":14.019503},"importance":4},{"id":"IT1054","name":"Ceggia","type":"rail","geo":{"lat":45.688247,"lng":12.63399},"importance":4},{"id":"IT1055","name":"Celano-Ovindoli","type":"rail","geo":{"lat":42.077136,"lng":13.543449},"importance":4},{"id":"IT228","name":"Celle","type":"rail","geo":{"lat":44.342355,"lng":8.542835},"importance":4},{"id":"IT42","name":"Celle Bulgheria Roccagloriosa","type":"rail","geo":{"lat":40.102775,"lng":15.394706},"importance":4},{"id":"IT1056","name":"Cengio","type":"rail","geo":{"lat":44.390799,"lng":8.191825},"importance":4},{"id":"ITM244","name":"Cenisio","type":"metro","geo":{"lat":45.4874537,"lng":9.172262},"importance":4},{"id":"IT1057","name":"Centallo","type":"rail","geo":{"lat":44.49622,"lng":7.591036},"importance":4},{"id":"IT43","name":"Centola-Palinuro-Marina Di Camerota","type":"rail","geo":{"lat":40.090521,"lng":15.346671},"importance":4},{"id":"ITM164","name":"Centrale FS","type":"metro","importance":4,"geo":{"lat":45.484658,"lng":9.202717}},{"id":"ITM257","name":"Centro Direzionale","type":"metro","geo":{"lat":40.8580563,"lng":14.2816183},"importance":4},{"id":"IT1058","name":"Ceprano-Falvaterra","type":"rail","geo":{"lat":41.524066,"lng":13.523551},"importance":4},{"id":"IT5416","name":"Cerbara","type":"rail","importance":4},{"id":"IT1061","name":"Cerchio","type":"rail","geo":{"lat":42.060681,"lng":13.597983},"importance":4},{"id":"IT1062","name":"Cerda","type":"rail","geo":{"lat":37.953977,"lng":13.78465},"importance":4},{"id":"IT1063","name":"Cerea","type":"rail","geo":{"lat":45.195819,"lng":11.214168},"importance":4},{"id":"IT1064","name":"Ceregnano","type":"rail","geo":{"lat":45.050559,"lng":11.870967},"importance":4},{"id":"IT229","name":"Ceriale","type":"rail","geo":{"lat":44.09888,"lng":8.234307},"importance":4},{"id":"IT1065","name":"Cerignola Campagna","type":"rail","geo":{"lat":41.315524,"lng":15.897337},"importance":4},{"id":"ITM192","name":"Cernusco sul Naviglio","type":"metro","geo":{"lat":45.5209871,"lng":9.3308377},"importance":4},{"id":"IT1066","name":"Cernusco-Merate","type":"rail","geo":{"lat":45.695035,"lng":9.396925},"importance":4},{"id":"IT5444","name":"Cerqueto","type":"rail","importance":4},{"id":"IT1067","name":"Cerreto D'Esi","type":"rail","geo":{"lat":43.322012,"lng":12.983274},"importance":4},{"id":"IT1068","name":"Certaldo","type":"rail","geo":{"lat":43.547111,"lng":11.037722},"importance":4},{"id":"ITM132","name":"Certosa (in costruzione)","type":"metro","geo":{"lat":45.0767988,"lng":7.5799522},"importance":4},{"id":"IT1069","name":"Certosa Di Pavia","type":"rail","geo":{"lat":45.256565,"lng":9.154207},"importance":4},{"id":"IT1072","name":"Cervia-Milano Marittima","type":"rail","geo":{"lat":44.258482,"lng":12.347378},"importance":4},{"id":"IT1073","name":"Cervignano-Aquileia-Grado","type":"rail","geo":{"lat":45.823688,"lng":13.342815},"importance":4},{"id":"IT780","name":"Cesano Boscone","type":"rail","geo":{"lat":45.43044,"lng":9.091586},"importance":4},{"id":"IT1075","name":"Cesano Di Roma","type":"rail","geo":{"lat":42.062264,"lng":12.326672},"importance":4},{"id":"IT1077","name":"Cesena","type":"rail","geo":{"lat":44.14531,"lng":12.249486},"importance":3},{"id":"IT1078","name":"Cesenatico","type":"rail","geo":{"lat":44.200636,"lng":12.391423},"importance":4},{"id":"IT5267","name":"Cesi","type":"rail","importance":4},{"id":"IT44","name":"Cetraro","type":"rail","geo":{"lat":39.512643,"lng":15.939419},"importance":4},{"id":"IT1079","name":"Ceva","type":"rail","geo":{"lat":44.389867,"lng":8.031967},"importance":4},{"id":"IT1081","name":"Chatillon-Saint-Vincent","type":"rail","geo":{"lat":45.743566,"lng":7.619234},"importance":4},{"id":"ITM58","name":"Chiaia - Monte di Dio","type":"metro","geo":{"lat":40.8355486,"lng":14.2450339},"importance":4},{"id":"ITM12","name":"Chiaiano","type":"metro","geo":{"lat":40.8907119,"lng":14.223476},"importance":4},{"id":"IT1083","name":"Chianche Ceppaloni","type":"rail","geo":{"lat":41.049108,"lng":14.77762},"importance":4},{"id":"IT1084","name":"Chiaravalle","type":"rail","geo":{"lat":43.595189,"lng":13.327659},"importance":4},{"id":"IT1085","name":"Chiari","type":"rail","geo":{"lat":45.53994,"lng":9.92658},"importance":4},{"id":"IT1087","name":"Chiasso","type":"rail","geo":{"lat":45.832165,"lng":9.031781},"importance":4},{"id":"IT231","name":"Chiavari","type":"rail","geo":{"lat":44.315255,"lng":9.322602},"importance":4},{"id":"IT1089","name":"Chiavenna","type":"rail","geo":{"lat":46.31961,"lng":9.40493},"importance":4},{"id":"IT1090","name":"Chieri","type":"rail","geo":{"lat":45.006284,"lng":7.823259},"importance":4},{"id":"IT1091","name":"Chieti","type":"rail","geo":{"lat":42.356859,"lng":14.1383},"importance":4},{"id":"IT2663","name":"Chieti-Madonna Delle Piane","type":"rail","geo":{"lat":42.372293,"lng":14.142812},"importance":4},{"id":"IT1092","name":"Chieuti Serracapriola","type":"rail","geo":{"lat":41.921831,"lng":15.156651},"importance":4},{"id":"IT1093","name":"Chignolo Po","type":"rail","geo":{"lat":45.16081,"lng":9.49418},"importance":4},{"id":"IT1094","name":"Chioggia","type":"rail","geo":{"lat":45.210149,"lng":12.275241},"importance":4},{"id":"IT1095","name":"Chiomonte","type":"rail","geo":{"lat":45.120127,"lng":6.988616},"importance":4},{"id":"IT1099","name":"Chiuduno","type":"rail","geo":{"lat":45.65057,"lng":9.84695},"importance":4},{"id":"IT1100","name":"Chiuro","type":"rail","geo":{"lat":46.16459,"lng":9.99242},"importance":4},{"id":"IT1101","name":"Chiusa","type":"rail","geo":{"lat":46.642573,"lng":11.572687},"importance":4},{"id":"IT1103","name":"Chiusano Cossombrato","type":"rail","geo":{"lat":45.545711,"lng":9.174094},"importance":4},{"id":"IT1104","name":"Chiusi-Chianciano Terme","type":"rail","geo":{"lat":43.002539,"lng":11.957569},"importance":4},{"id":"IT1105","name":"Chivasso","type":"rail","geo":{"lat":45.193387,"lng":7.889539},"importance":4},{"id":"IT1106","name":"Ciampino","type":"rail","geo":{"lat":41.803981,"lng":12.599552},"importance":4},{"id":"ITM139","name":"Cibali","type":"metro","geo":{"lat":37.5199581,"lng":15.0674419},"importance":4},{"id":"ITM188","name":"Cimiano","type":"metro","geo":{"lat":45.499541,"lng":9.2407696},"importance":4},{"id":"ITM323","name":"Cinecitt","type":"metro","geo":{"lat":41.849274,"lng":12.5744078},"importance":4},{"id":"IT1110","name":"Cinisi Terrasini","type":"rail","geo":{"lat":38.155061,"lng":13.096677},"importance":4},{"id":"ITM315","name":"Cipro","type":"metro","geo":{"lat":41.9073889,"lng":12.4476868},"importance":4},{"id":"ITM268","name":"Circo Massimo","type":"metro","geo":{"lat":41.8835164,"lng":12.488033},"importance":4},{"id":"IT5039","name":"Cirie'","type":"rail","geo":{"lat":45.230237,"lng":7.602519},"importance":4},{"id":"IT46","name":"Ciro'","type":"rail","geo":{"lat":39.368754,"lng":17.116869},"importance":4},{"id":"IT1111","name":"Cisano Caprino Bergamasco","type":"rail","geo":{"lat":45.739723,"lng":9.474417},"importance":4},{"id":"IT1112","name":"Cismon Del Grappa","type":"rail","geo":{"lat":45.919509,"lng":11.729567},"importance":4},{"id":"IT1113","name":"Cisterna Di Latina","type":"rail","geo":{"lat":41.586619,"lng":12.827749},"importance":4},{"id":"IT1114","name":"Cisternino","type":"rail","geo":{"lat":40.816434,"lng":17.45691},"importance":4},{"id":"IT5419","name":"Citta' Di Castello","type":"rail","geo":{"lat":43.455132,"lng":12.246927},"importance":4},{"id":"IT5418","name":"Citta` Di Castello - Fornace","type":"rail","geo":{"lat":43.463719,"lng":12.239638},"importance":4},{"id":"IT5417","name":"Citta` Di Castello - Zona Industriale","type":"rail","geo":{"lat":43.474299,"lng":12.227006},"importance":4},{"id":"IT1117","name":"Cittadella","type":"rail","geo":{"lat":45.643856,"lng":11.789946},"importance":4},{"id":"ITM300","name":"Cittadella Regionale","type":"metro","geo":{"lat":38.8622739,"lng":16.5701015},"importance":4},{"id":"IT1118","name":"Cittaducale","type":"rail","geo":{"lat":42.387831,"lng":12.942869},"importance":4},{"id":"IT1119","name":"Civate","type":"rail","geo":{"lat":45.83133,"lng":9.35275},"importance":4},{"id":"IT799","name":"Cividate-Calcio","type":"rail","geo":{"lat":45.53274,"lng":9.841374},"importance":4},{"id":"IT1120","name":"Civita Castellana-Magliano","type":"rail","geo":{"lat":42.346598,"lng":12.45399},"importance":4},{"id":"IT1121","name":"Civita D'Antino-Morino","type":"rail","geo":{"lat":41.870279,"lng":13.458877},"importance":4},{"id":"IT1122","name":"Civitanova Marche-Montegranaro","type":"rail","geo":{"lat":43.309241,"lng":13.725986},"importance":4},{"id":"IT1123","name":"Civitavecchia","type":"rail","geo":{"lat":42.088228,"lng":11.797978},"importance":3},{"id":"IT1124","name":"Civitella Paganico","type":"rail","geo":{"lat":42.940157,"lng":11.283169},"importance":4},{"id":"IT1125","name":"Civitella Roveto","type":"rail","geo":{"lat":41.916427,"lng":13.424725},"importance":4},{"id":"IT1127","name":"Classe","type":"rail","geo":{"lat":44.382033,"lng":12.234995},"importance":4},{"id":"IT1128","name":"Coccaglio","type":"rail","geo":{"lat":45.56109,"lng":9.9777},"importance":4},{"id":"IT1129","name":"Cocconato","type":"rail","geo":{"lat":45.083816,"lng":8.069658},"importance":4},{"id":"IT1130","name":"Cocullo","type":"rail","geo":{"lat":42.040813,"lng":13.776481},"importance":4},{"id":"IT1134","name":"Codogno","type":"rail","geo":{"lat":45.15496,"lng":9.70136},"importance":4},{"id":"IT1135","name":"Codola","type":"rail","geo":{"lat":40.767513,"lng":14.665709},"importance":4},{"id":"IT1136","name":"Codroipo","type":"rail","geo":{"lat":45.965614,"lng":12.97665},"importance":4},{"id":"IT232","name":"Cogoleto","type":"rail","geo":{"lat":44.389765,"lng":8.643913},"importance":4},{"id":"IT1138","name":"Colfelice","type":"rail","geo":{"lat":41.555383,"lng":13.601646},"importance":4},{"id":"IT1139","name":"Colico","type":"rail","geo":{"lat":46.137891,"lng":9.375288},"importance":4},{"id":"IT1140","name":"Collarmele","type":"rail","geo":{"lat":42.060292,"lng":13.629348},"importance":4},{"id":"IT1141","name":"Colle Isarco","type":"rail","geo":{"lat":46.938092,"lng":11.441578},"importance":4},{"id":"IT1142","name":"Colle Mattia","type":"rail","geo":{"lat":41.832603,"lng":12.728308},"importance":4},{"id":"IT1144","name":"Collecchio","type":"rail","geo":{"lat":44.755297,"lng":10.212377},"importance":4},{"id":"IT1145","name":"Colleferro-Segni-Paliano","type":"rail","geo":{"lat":41.739821,"lng":13.002799},"importance":4},{"id":"IT1146","name":"Collegno","type":"rail","geo":{"lat":45.078984,"lng":7.574207},"importance":4},{"id":"ITM130","name":"Collegno Centro (in costruzione)","type":"metro","geo":{"lat":45.0727168,"lng":7.5755441},"importance":4},{"id":"IT5450","name":"Collevalenza R.R.","type":"rail","importance":4},{"id":"IT1148","name":"Collevecchio-Poggio Sommavilla","type":"rail","geo":{"lat":42.297683,"lng":12.522693},"importance":4},{"id":"ITM313","name":"Colli Albani","type":"metro","geo":{"lat":41.8694882,"lng":12.5298717},"importance":4},{"id":"ITM113","name":"Colli Aminei","type":"metro","geo":{"lat":40.8698129,"lng":14.228614},"importance":4},{"id":"IT2333","name":"Colli Del Tronto","type":"rail","geo":{"lat":42.867073,"lng":13.748282},"importance":4},{"id":"IT1149","name":"Colli Di Monte Bove","type":"rail","geo":{"lat":42.097215,"lng":13.150621},"importance":4},{"id":"IT1151","name":"Cologne","type":"rail","geo":{"lat":45.57669,"lng":9.93555},"importance":4},{"id":"ITM20","name":"Cologno Centro","type":"metro","geo":{"lat":45.5275053,"lng":9.2829619},"importance":4},{"id":"ITM19","name":"Cologno Nord","type":"metro","geo":{"lat":45.5342918,"lng":9.2911363},"importance":4},{"id":"ITM126","name":"Cologno Sud","type":"metro","geo":{"lat":45.5201965,"lng":9.2749277},"importance":4},{"id":"IT1152","name":"Colonna Galleria","type":"rail","geo":{"lat":41.838642,"lng":12.756082},"importance":4},{"id":"IT1153","name":"Colorno","type":"rail","geo":{"lat":44.92797,"lng":10.38279},"importance":4},{"id":"ITM264","name":"Colosseo","type":"metro","geo":{"lat":41.8912684,"lng":12.4913087},"importance":4},{"id":"ITM167","name":"Comasina","type":"metro","geo":{"lat":45.5281283,"lng":9.1637084},"importance":4},{"id":"IT1155","name":"Comiso","type":"rail","geo":{"lat":36.947225,"lng":14.600516},"importance":4},{"id":"IT3222","name":"Como Camerlata","type":"rail","geo":{"lat":45.784578,"lng":9.0794},"importance":4},{"id":"IT1158","name":"Como S.Giovanni","type":"rail","geo":{"lat":45.80902,"lng":9.072796},"importance":3},{"id":"IT1159","name":"Compiobbi","type":"rail","geo":{"lat":43.782441,"lng":11.35892},"importance":4},{"id":"IT1160","name":"Compre S.Vincenzo","type":"rail","geo":{"lat":41.757065,"lng":13.607583},"importance":4},{"id":"ITM22","name":"Conca d'Oro","type":"metro","geo":{"lat":41.9397676,"lng":12.528141},"importance":4},{"id":"ITM236","name":"Conciliazione","type":"metro","geo":{"lat":45.467522,"lng":9.1666054},"importance":4},{"id":"IT48","name":"Condofuri","type":"rail","geo":{"lat":37.927778,"lng":15.87492},"importance":4},{"id":"IT1162","name":"Condove-Chiusa S.Michele","type":"rail","geo":{"lat":45.106901,"lng":7.316986},"importance":4},{"id":"IT1163","name":"Conegliano","type":"rail","geo":{"lat":45.884125,"lng":12.297105},"importance":4},{"id":"ITM287","name":"Coni Zugna","type":"metro","geo":{"lat":45.4591563,"lng":9.1650741},"importance":4},{"id":"IT1166","name":"Conselice","type":"rail","geo":{"lat":44.511062,"lng":11.831752},"importance":4},{"id":"IT1167","name":"Contea Londa","type":"rail","geo":{"lat":43.865102,"lng":11.531449},"importance":4},{"id":"IT1168","name":"Contesse","type":"rail","geo":{"lat":38.150231,"lng":15.5357},"importance":4},{"id":"IT1169","name":"Contigliano","type":"rail","geo":{"lat":42.411958,"lng":12.779051},"importance":4},{"id":"IT1170","name":"Contursi Terme","type":"rail","geo":{"lat":40.630097,"lng":15.235587},"importance":4},{"id":"IT1174","name":"Corbetta-S.Stefano Ticino","type":"rail","geo":{"lat":45.481229,"lng":8.918117},"importance":4},{"id":"IT1175","name":"Corbezzi","type":"rail","geo":{"lat":43.993944,"lng":10.91968},"importance":4},{"id":"IT1178","name":"Cordovado Sesto","type":"rail","geo":{"lat":45.850621,"lng":12.877945},"importance":4},{"id":"ITM216","name":"Cordusio","type":"metro","geo":{"lat":45.4655495,"lng":9.1862299},"importance":4},{"id":"IT49","name":"Corigliano Calabro","type":"rail","geo":{"lat":39.628107,"lng":16.51483},"importance":4},{"id":"IT1180","name":"Cormons","type":"rail","geo":{"lat":45.957569,"lng":13.461518},"importance":4},{"id":"ITM302","name":"Cornelia","type":"metro","geo":{"lat":41.9005397,"lng":12.4264281},"importance":4},{"id":"IT233","name":"Corniglia","type":"rail","geo":{"lat":44.118622,"lng":9.716411},"importance":4},{"id":"IT1182","name":"Cornino","type":"rail","importance":4},{"id":"IT1183","name":"Cornuda","type":"rail","geo":{"lat":45.833773,"lng":12.012893},"importance":4},{"id":"IT1184","name":"Coronella","type":"rail","geo":{"lat":44.79605,"lng":11.54449},"importance":4},{"id":"IT1185","name":"Corridonia Mogliano","type":"rail","geo":{"lat":43.281504,"lng":13.47783},"importance":4},{"id":"IT1186","name":"Corsano","type":"rail","geo":{"lat":39.89211,"lng":18.346867},"importance":4},{"id":"IT1187","name":"Corsico","type":"rail","geo":{"lat":45.436055,"lng":9.108993},"importance":4},{"id":"IT1188","name":"Corteolona","type":"rail","geo":{"lat":45.15958,"lng":9.37549},"importance":4},{"id":"ITM174","name":"Corvetto","type":"metro","geo":{"lat":45.4403776,"lng":9.2234375},"importance":4},{"id":"ITM51","name":"Corvo","type":"metro","geo":{"lat":38.8465723,"lng":16.6108919},"importance":4},{"id":"IT50","name":"Cosenza","type":"rail","geo":{"lat":39.318894,"lng":16.260021},"importance":3},{"id":"IT1189","name":"Cosio Traona","type":"rail","geo":{"lat":46.13548,"lng":9.52552},"importance":4},{"id":"IT1190","name":"Cossato","type":"rail","geo":{"lat":45.564337,"lng":8.176098},"importance":4},{"id":"IT1192","name":"Costa","type":"rail","geo":{"lat":45.045741,"lng":11.696443},"importance":4},{"id":"IT1193","name":"Costa Masnaga","type":"rail","geo":{"lat":45.763478,"lng":9.284907},"importance":4},{"id":"IT1194","name":"Costigliole (Motta Di)","type":"rail","geo":{"lat":44.807564,"lng":8.145722},"importance":4},{"id":"IT1196","name":"Costigliole Saluzzo","type":"rail","geo":{"lat":44.569219,"lng":7.482609},"importance":4},{"id":"IT1197","name":"Cotignola","type":"rail","geo":{"lat":44.386768,"lng":11.938387},"importance":4},{"id":"IT1201","name":"Crema","type":"rail","geo":{"lat":45.366693,"lng":9.694088},"importance":4},{"id":"IT1202","name":"Cremona","type":"rail","geo":{"lat":45.143222,"lng":10.017961},"importance":3},{"id":"IT1203","name":"Crescentino","type":"rail","geo":{"lat":45.194306,"lng":8.107187},"importance":4},{"id":"ITM187","name":"Crescenzago","type":"metro","geo":{"lat":45.5048602,"lng":9.2477628},"importance":4},{"id":"IT1204","name":"Crespino Del Lamone","type":"rail","geo":{"lat":44.041797,"lng":11.548223},"importance":4},{"id":"IT1205","name":"Cressa Fontaneto","type":"rail","geo":{"lat":45.646334,"lng":8.498437},"importance":4},{"id":"IT1206","name":"Crevalcore","type":"rail","geo":{"lat":44.719143,"lng":11.152626},"importance":4},{"id":"ITM24","name":"Cristoforo Colombo","type":"metro","geo":{"lat":41.7145146,"lng":12.3219552},"importance":4},{"id":"ITM177","name":"Crocetta","type":"metro","geo":{"lat":45.4562736,"lng":9.1955754},"importance":4},{"id":"IT51","name":"Cropani","type":"rail","geo":{"lat":38.922039,"lng":16.813489},"importance":4},{"id":"IT52","name":"Crotone","type":"rail","geo":{"lat":39.084496,"lng":17.108494},"importance":3},{"id":"IT53","name":"Crucoli","type":"rail","geo":{"lat":39.449538,"lng":17.040623},"importance":4},{"id":"IT1208","name":"Cucciago","type":"rail","geo":{"lat":45.740812,"lng":9.082067},"importance":4},{"id":"IT1211","name":"Cuneo","type":"rail","geo":{"lat":44.387797,"lng":7.536324},"importance":3},{"id":"IT1212","name":"Cuneo Gesso","type":"rail","geo":{"lat":44.394288,"lng":7.556231},"importance":4},{"id":"IT1213","name":"Cunico Scandeluzza","type":"rail","importance":4},{"id":"IT1214","name":"Cupone","type":"rail","geo":{"lat":41.964301,"lng":13.37749},"importance":4},{"id":"IT1215","name":"Cupramarittima","type":"rail","geo":{"lat":43.023456,"lng":13.860516},"importance":4},{"id":"IT54","name":"Curinga","type":"rail","importance":4},{"id":"IT1217","name":"Cusano","type":"rail","geo":{"lat":45.9455,"lng":12.7574},"importance":4},{"id":"IT55","name":"Cutro","type":"rail","geo":{"lat":39.025833,"lng":16.963893},"importance":4},{"id":"IT1218","name":"Cuzzago (Mi)","type":"rail","geo":{"lat":45.99382,"lng":8.372751},"importance":4},{"id":"IT3208","name":"Cuzzago (No)","type":"rail","geo":{"lat":45.993184,"lng":8.374028},"importance":4},{"id":"ITM31","name":"Dante","type":"metro","geo":{"lat":40.8489416,"lng":14.2501201},"importance":4},{"id":"ITM45","name":"Dante","type":"metro","geo":{"lat":45.0469037,"lng":7.6728829},"importance":4},{"id":"ITM7","name":"Darsena","type":"metro","geo":{"lat":44.4130419,"lng":8.9266281},"importance":4},{"id":"ITM253","name":"Dateo","type":"metro","geo":{"lat":45.4680015,"lng":9.2184474},"importance":4},{"id":"ITM275","name":"De Amicis","type":"metro","geo":{"lat":45.4591231,"lng":9.177399},"importance":4},{"id":"ITM233","name":"De Angeli","type":"metro","geo":{"lat":45.4664527,"lng":9.1495656},"importance":4},{"id":"ITM8","name":"De Ferrari","type":"metro","geo":{"lat":44.4072126,"lng":8.9347649},"importance":4},{"id":"IT1223","name":"Decimomannu","type":"rail","geo":{"lat":39.304799,"lng":8.965899},"importance":4},{"id":"IT1224","name":"Dego","type":"rail","geo":{"lat":44.448007,"lng":8.308471},"importance":4},{"id":"IT234","name":"Deiva Marina","type":"rail","geo":{"lat":44.217307,"lng":9.519028},"importance":4},{"id":"IT1225","name":"Delebio","type":"rail","geo":{"lat":46.138532,"lng":9.461189},"importance":4},{"id":"IT1227","name":"Derby","type":"rail","geo":{"lat":45.730278,"lng":7.087021},"importance":4},{"id":"ITM33","name":"Dergano","type":"metro","geo":{"lat":45.5055437,"lng":9.1795675},"importance":4},{"id":"IT5441","name":"Deruta","type":"rail","importance":4},{"id":"IT1228","name":"Dervio","type":"rail","geo":{"lat":46.07764,"lng":9.30622},"importance":4},{"id":"IT1229","name":"Desenzano Del Garda-Sirmione","type":"rail","geo":{"lat":45.46274,"lng":10.53642},"importance":3},{"id":"IT1230","name":"Desio","type":"rail","geo":{"lat":45.620113,"lng":9.218291},"importance":4},{"id":"IT56","name":"Diamante Buonvicino","type":"rail","geo":{"lat":39.676844,"lng":15.824143},"importance":4},{"id":"IT4502","name":"Diano","type":"rail","geo":{"lat":43.924949,"lng":8.072999},"importance":4},{"id":"IT1240","name":"Dicomano","type":"rail","geo":{"lat":43.893461,"lng":11.519153},"importance":4},{"id":"IT1241","name":"Diecimo-Pescaglia","type":"rail","geo":{"lat":43.959401,"lng":10.507845},"importance":4},{"id":"ITM6","name":"Dinegro","type":"metro","geo":{"lat":44.4139578,"lng":8.9122285},"importance":4},{"id":"IT1246","name":"Dittaino","type":"rail","geo":{"lat":37.564472,"lng":14.462432},"importance":4},{"id":"IT1247","name":"Dobbiaco","type":"rail","geo":{"lat":46.724797,"lng":12.225447},"importance":4},{"id":"IT1251","name":"Dolo","type":"rail","geo":{"lat":45.45339,"lng":12.07162},"importance":4},{"id":"IT1252","name":"Domegliara-S.Ambrogio","type":"rail","geo":{"lat":45.522363,"lng":10.820745},"importance":4},{"id":"IT1253","name":"Domodossola","type":"rail","geo":{"lat":46.115482,"lng":8.296503},"importance":3},{"id":"ITM242","name":"Domodossola FN","type":"metro","geo":{"lat":45.4814045,"lng":9.1619408},"importance":4},{"id":"IT1255","name":"Donnafugata","type":"rail","geo":{"lat":36.882166,"lng":14.568866},"importance":4},{"id":"IT1256","name":"Donnas","type":"rail","importance":4},{"id":"IT1258","name":"Dorio","type":"rail","geo":{"lat":46.10264,"lng":9.31921},"importance":4},{"id":"IT1259","name":"Dormelletto","type":"rail","geo":{"lat":45.723382,"lng":8.582261},"importance":4},{"id":"IT1260","name":"Dormelletto Paese","type":"rail","geo":{"lat":45.730084,"lng":8.574554},"importance":4},{"id":"IT1261","name":"Dossobuono","type":"rail","geo":{"lat":45.392378,"lng":10.914838},"importance":4},{"id":"IT1263","name":"Dubino","type":"rail","geo":{"lat":46.17267,"lng":9.43218},"importance":4},{"id":"IT3199","name":"Duca D'Aosta","type":"rail","importance":4},{"id":"ITM67","name":"Due Leoni - Fontana Candida","type":"metro","geo":{"lat":41.8649024,"lng":12.6581296},"importance":4},{"id":"IT1265","name":"Dueville","type":"rail","geo":{"lat":45.634963,"lng":11.546113},"importance":4},{"id":"ITM81","name":"Dulcino","type":"metro","geo":{"lat":38.8858494,"lng":16.6023305},"importance":4},{"id":"ITM95","name":"Duomo","type":"metro","geo":{"lat":40.8476169,"lng":14.2616083},"importance":4},{"id":"ITM125","name":"Duomo","type":"metro","geo":{"lat":45.4641385,"lng":9.1885548},"importance":4},{"id":"IT3513","name":"Duomo Via Vernieri","type":"rail","geo":{"lat":40.681317,"lng":14.762169},"importance":4},{"id":"IT1266","name":"Eboli","type":"rail","geo":{"lat":40.611189,"lng":15.052464},"importance":4},{"id":"IT1267","name":"Eca Nasago`","type":"rail","geo":{"lat":44.160783,"lng":7.965139},"importance":4},{"id":"IT1268","name":"Egna-Termeno","type":"rail","geo":{"lat":46.319336,"lng":11.257439},"importance":4},{"id":"IT1270","name":"Ellera Corciano","type":"rail","geo":{"lat":43.094594,"lng":12.318577},"importance":4},{"id":"IT1048","name":"Elmas Aeroporto","type":"rail","geo":{"lat":39.257216,"lng":9.06287},"importance":4},{"id":"IT1271","name":"Empoli","type":"rail","geo":{"lat":43.715926,"lng":10.949246},"importance":4},{"id":"IT1272","name":"Enas","type":"rail","geo":{"lat":40.856955,"lng":9.431145},"importance":4},{"id":"IT1273","name":"Enna","type":"rail","geo":{"lat":37.580925,"lng":14.289408},"importance":3},{"id":"IT1275","name":"Equi Terme","type":"rail","geo":{"lat":44.170286,"lng":10.153634},"importance":4},{"id":"IT1276","name":"Este","type":"rail","geo":{"lat":45.220914,"lng":11.662933},"importance":4},{"id":"ITM261","name":"EUR Fermi","type":"metro","geo":{"lat":41.8288306,"lng":12.4708565},"importance":4},{"id":"ITM156","name":"EUR Magliana","type":"metro","geo":{"lat":41.8395496,"lng":12.4632892},"importance":4},{"id":"ITM263","name":"EUR Palasport","type":"metro","geo":{"lat":41.8300135,"lng":12.4667117},"importance":4},{"id":"ITM100","name":"Europa","type":"metro","geo":{"lat":45.5626254,"lng":10.2347306},"importance":4},{"id":"IT2288","name":"Europa Pes","type":"rail","geo":{"lat":41.135191,"lng":16.781523},"importance":4},{"id":"IT1281","name":"Fabriano","type":"rail","geo":{"lat":43.34535,"lng":12.9055},"importance":4},{"id":"IT1284","name":"Fabro-Ficulle","type":"rail","geo":{"lat":42.874781,"lng":12.041239},"importance":4},{"id":"IT1285","name":"Faenza","type":"rail","geo":{"lat":44.293278,"lng":11.883075},"importance":3},{"id":"IT3405","name":"Fagare'","type":"rail","geo":{"lat":45.706929,"lng":12.444298},"importance":4},{"id":"IT1287","name":"Fagnano Campana","type":"rail","geo":{"lat":42.250188,"lng":13.562752},"importance":4},{"id":"IT1288","name":"Falciano-Mondragone-Carinola","type":"rail","geo":{"lat":41.1236,"lng":13.971705},"importance":4},{"id":"IT1291","name":"Falconara Marittima","type":"rail","geo":{"lat":43.630244,"lng":13.397391},"importance":4},{"id":"IT3577","name":"Falconara Stadio","type":"rail","geo":{"lat":43.626112,"lng":13.381574},"importance":4},{"id":"IT1292","name":"Falcone","type":"rail","geo":{"lat":38.119497,"lng":15.080497},"importance":4},{"id":"IT59","name":"Falerna","type":"rail","importance":4},{"id":"ITM151","name":"Famagosta","type":"metro","geo":{"lat":45.4368888,"lng":9.1681331},"importance":4},{"id":"IT5442","name":"Fanciullata","type":"rail","importance":4},{"id":"IT1293","name":"Fanna-Cavasso","type":"rail","importance":4},{"id":"IT1294","name":"Fano","type":"rail","geo":{"lat":43.842818,"lng":13.024602},"importance":4},{"id":"IT1295","name":"Fanzolo","type":"rail","geo":{"lat":45.708329,"lng":11.991868},"importance":4},{"id":"IT1296","name":"Fara","type":"rail","geo":{"lat":45.550526,"lng":8.458218},"importance":4},{"id":"IT1297","name":"Fara Sabina-Montelibretti","type":"rail","geo":{"lat":42.155575,"lng":12.648113},"importance":4},{"id":"IT1299","name":"Fasano","type":"rail","geo":{"lat":40.851558,"lng":17.385809},"importance":4},{"id":"IT60","name":"Favazzina","type":"rail","geo":{"lat":38.258801,"lng":15.756337},"importance":4},{"id":"IT1302","name":"Federico","type":"rail","geo":{"lat":38.145349,"lng":13.348133},"importance":4},{"id":"IT5024","name":"Feletto","type":"rail","geo":{"lat":45.30369,"lng":7.743847},"importance":4},{"id":"IT1304","name":"Felizzano","type":"rail","geo":{"lat":44.893367,"lng":8.437163},"importance":4},{"id":"IT1306","name":"Feltre","type":"rail","geo":{"lat":46.012983,"lng":11.911358},"importance":4},{"id":"IT1307","name":"Ferentino-Supino","type":"rail","geo":{"lat":41.656471,"lng":13.247099},"importance":4},{"id":"ITM60","name":"Fermi","type":"metro","geo":{"lat":45.0759955,"lng":7.591176},"importance":4},{"id":"IT1308","name":"Ferrandina Scalo-Matera","type":"rail","geo":{"lat":40.516576,"lng":16.475181},"importance":4},{"id":"IT237","name":"Ferrania","type":"rail","geo":{"lat":44.365449,"lng":8.32558},"importance":4},{"id":"IT1309","name":"Ferrara","type":"rail","geo":{"lat":44.842891,"lng":11.603979},"importance":3},{"id":"IT1311","name":"Ferrera Lomellina","type":"rail","geo":{"lat":45.11192,"lng":8.86284},"importance":4},{"id":"IT62","name":"Ferruzzano","type":"rail","geo":{"lat":38.01636,"lng":16.134357},"importance":4},{"id":"IT644","name":"Ficarazzi","type":"rail","geo":{"lat":38.086569,"lng":13.463353},"importance":4},{"id":"IT3351","name":"Fidene","type":"rail","geo":{"lat":41.979311,"lng":12.508652},"importance":4},{"id":"IT1317","name":"Fidenza","type":"rail","geo":{"lat":44.867733,"lng":10.063396},"importance":4},{"id":"IT1318","name":"Fiera","type":"rail","geo":{"lat":38.1411,"lng":13.3537},"importance":4},{"id":"IT4040","name":"Fiera Di Roma","type":"rail","geo":{"lat":41.809851,"lng":12.318929},"importance":4},{"id":"IT3415","name":"Fiesole Caldine","type":"rail","geo":{"lat":43.830452,"lng":11.307845},"importance":4},{"id":"IT1319","name":"Figline Valdarno","type":"rail","geo":{"lat":43.621848,"lng":11.473505},"importance":4},{"id":"IT1320","name":"Filattiera","type":"rail","geo":{"lat":44.331372,"lng":9.933354},"importance":4},{"id":"IT1322","name":"Filiano","type":"rail","geo":{"lat":40.837152,"lng":15.752397},"importance":4},{"id":"IT238","name":"Finale Ligure Marina","type":"rail","geo":{"lat":44.169049,"lng":8.340587},"importance":4},{"id":"ITM68","name":"Finocchio","type":"metro","geo":{"lat":41.8655206,"lng":12.6876098},"importance":4},{"id":"IT1324","name":"Fiorenzuola","type":"rail","geo":{"lat":44.928659,"lng":9.917352},"importance":4},{"id":"IT1312","name":"Firenze Campo Marte","type":"rail","geo":{"lat":43.777657,"lng":11.276112},"importance":3},{"id":"IT1314","name":"Firenze Castello","type":"rail","geo":{"lat":43.819443,"lng":11.218386},"importance":4},{"id":"IT1315","name":"Firenze Rifredi","type":"rail","geo":{"lat":43.800222,"lng":11.236627},"importance":3},{"id":"IT3369","name":"Firenze Rovezzano","type":"rail","geo":{"lat":43.768713,"lng":11.307753},"importance":4},{"id":"IT1325","name":"Firenze Santa Maria Novella","type":"rail","geo":{"lat":43.776672,"lng":11.247916},"importance":1},{"id":"IT1316","name":"Firenze Statuto","type":"rail","geo":{"lat":43.787276,"lng":11.249898},"importance":4},{"id":"IT1326","name":"Fisciano","type":"rail","geo":{"lat":40.761092,"lng":14.775685},"importance":4},{"id":"IT3151","name":"Fiumara Gazzi","type":"rail","geo":{"lat":38.160969,"lng":15.543907},"importance":4},{"id":"IT1328","name":"Fiumefreddo Di Sicilia","type":"rail","geo":{"lat":37.795258,"lng":15.205581},"importance":4},{"id":"IT1329","name":"Fiumelatte","type":"rail","geo":{"lat":45.99904,"lng":9.29271},"importance":4},{"id":"IT1330","name":"Fiumetorto","type":"rail","geo":{"lat":37.966113,"lng":13.77336},"importance":4},{"id":"IT1327","name":"Fiumicino Aeroporto","type":"rail","geo":{"lat":41.793672,"lng":12.251668},"importance":4},{"id":"IT1333","name":"Fivizzano Rometta-Soliera","type":"rail","geo":{"lat":44.201664,"lng":10.05943},"importance":4},{"id":"IT1332","name":"Fivizzano-Gassano","type":"rail","geo":{"lat":44.202834,"lng":10.091672},"importance":4},{"id":"ITM310","name":"Flaminio","type":"metro","geo":{"lat":41.9128476,"lng":12.4771598},"importance":4},{"id":"IT1334","name":"Foggia","type":"rail","geo":{"lat":41.465547,"lng":15.555592},"importance":3},{"id":"IT1335","name":"Fognano","type":"rail","geo":{"lat":44.203294,"lng":11.727673},"importance":4},{"id":"IT1336","name":"Foligno","type":"rail","geo":{"lat":42.95423,"lng":12.710799},"importance":3},{"id":"IT1337","name":"Follonica","type":"rail","geo":{"lat":42.926541,"lng":10.755729},"importance":4},{"id":"IT1338","name":"Fondi-Sperlonga","type":"rail","geo":{"lat":41.337793,"lng":13.424948},"importance":4},{"id":"IT1339","name":"Fontan Saorge","type":"rail","geo":{"lat":43.996445,"lng":7.551905},"importance":4},{"id":"ITM292","name":"Fontana","type":"metro","geo":{"lat":37.5139811,"lng":15.0426588},"importance":4},{"id":"IT1340","name":"Fontana Liri Inferiore","type":"rail","geo":{"lat":41.609364,"lng":13.556708},"importance":4},{"id":"IT1342","name":"Fontanafredda","type":"rail","geo":{"lat":45.967534,"lng":12.575474},"importance":4},{"id":"IT1343","name":"Fontanarosa-Cervaro","type":"rail","geo":{"lat":41.446827,"lng":13.863833},"importance":4},{"id":"IT4087","name":"Fontane Bianche","type":"rail","geo":{"lat":36.969097,"lng":15.211402},"importance":4},{"id":"IT1344","name":"Fontanetto Po","type":"rail","geo":{"lat":45.191307,"lng":8.188776},"importance":4},{"id":"IT1345","name":"Fontaniva","type":"rail","geo":{"lat":45.634676,"lng":11.749039},"importance":4},{"id":"IT1346","name":"Fontecchio","type":"rail","geo":{"lat":42.222738,"lng":13.604398},"importance":4},{"id":"IT1348","name":"Forenza","type":"rail","geo":{"lat":40.866919,"lng":15.72548},"importance":4},{"id":"IT1349","name":"Forgaria Bagni Anduins","type":"rail","importance":4},{"id":"IT1350","name":"Forli'","type":"rail","geo":{"lat":44.223982,"lng":12.054648},"importance":3},{"id":"IT1351","name":"Forlimpopoli-Bertinoro","type":"rail","geo":{"lat":44.19408,"lng":12.12813},"importance":4},{"id":"IT1352","name":"Formia-Gaeta","type":"rail","importance":4},{"id":"IT1353","name":"Fornaci Di Barga","type":"rail","geo":{"lat":44.045392,"lng":10.473307},"importance":4},{"id":"IT1354","name":"Fornovo","type":"rail","geo":{"lat":44.693795,"lng":10.102026},"importance":4},{"id":"IT1355","name":"Forte Dei Marmi-Seravezza-Querceta","type":"rail","geo":{"lat":43.977889,"lng":10.199422},"importance":4},{"id":"IT1356","name":"Fortezza","type":"rail","geo":{"lat":46.788892,"lng":11.610273},"importance":4},{"id":"IT1357","name":"Fosciandora-Ceserana","type":"rail","geo":{"lat":44.118666,"lng":10.4443},"importance":4},{"id":"IT1359","name":"Fossacesia-Torino Di Sangro","type":"rail","geo":{"lat":42.236934,"lng":14.522903},"importance":4},{"id":"IT1360","name":"Fossalta Di Piave","type":"rail","geo":{"lat":45.62431,"lng":12.500314},"importance":4},{"id":"IT1362","name":"Fossano","type":"rail","geo":{"lat":44.550241,"lng":7.718196},"importance":4},{"id":"IT1363","name":"Fossato Di Vico Gubbio","type":"rail","geo":{"lat":43.283885,"lng":12.757089},"importance":4},{"id":"IT1364","name":"Fragneto Monforte","type":"rail","importance":4},{"id":"IT239","name":"Framura","type":"rail","geo":{"lat":44.20191,"lng":9.555172},"importance":4},{"id":"IT1367","name":"Francavilla Al Mare","type":"rail","geo":{"lat":42.421449,"lng":14.288023},"importance":4},{"id":"IT1366","name":"Francavilla Fontana","type":"rail","geo":{"lat":40.523301,"lng":17.584732},"importance":4},{"id":"IT1369","name":"Franciosa","type":"rail","geo":{"lat":40.678553,"lng":15.624532},"importance":4},{"id":"IT1370","name":"Frascati","type":"rail","geo":{"lat":41.807003,"lng":12.678214},"importance":4},{"id":"IT3349","name":"Frasso","type":"rail","geo":{"lat":41.365903,"lng":13.200666},"importance":4},{"id":"IT1371","name":"Frasso Telesino-Dugenta","type":"rail","geo":{"lat":41.137277,"lng":14.459291},"importance":4},{"id":"IT1372","name":"Fratta","type":"rail","geo":{"lat":45.038593,"lng":11.642658},"importance":4},{"id":"IT5446","name":"Fratta Todina","type":"rail","geo":{"lat":42.84934,"lng":12.38512},"importance":4},{"id":"IT1373","name":"Frattamaggiore-Grumo","type":"rail","geo":{"lat":40.94016,"lng":14.263839},"importance":4},{"id":"IT1375","name":"Fratte","type":"rail","geo":{"lat":40.699419,"lng":14.775617},"importance":4},{"id":"IT1376","name":"Fratte Centro","type":"rail","geo":{"lat":45.585789,"lng":11.90664},"importance":4},{"id":"IT5143","name":"Fratte Villa Comunale","type":"rail","geo":{"lat":40.69642,"lng":14.77799},"importance":4},{"id":"ITM283","name":"Frattini","type":"metro","geo":{"lat":45.4518746,"lng":9.1424066},"importance":4},{"id":"IT1377","name":"Frosinone","type":"rail","geo":{"lat":41.625413,"lng":13.328844},"importance":3},{"id":"IT240","name":"Frugarolo Boscomarengo","type":"rail","geo":{"lat":44.841587,"lng":8.682577},"importance":4},{"id":"ITM84","name":"Frullone","type":"metro","geo":{"lat":40.8807496,"lng":14.2308826},"importance":4},{"id":"IT3518","name":"Funo Centergross","type":"rail","geo":{"lat":44.593646,"lng":11.370672},"importance":4},{"id":"IT1381","name":"Furci","type":"rail","geo":{"lat":37.961625,"lng":15.380105},"importance":4},{"id":"ITM312","name":"Furio Camillo","type":"metro","geo":{"lat":41.8747498,"lng":12.5230387},"importance":4},{"id":"IT65","name":"Fuscaldo","type":"rail","geo":{"lat":39.409717,"lng":16.011645},"importance":4},{"id":"IT1386","name":"Gaggiano","type":"rail","geo":{"lat":45.408743,"lng":9.031189},"importance":4},{"id":"IT3162","name":"Gaggio Porta Est","type":"rail","geo":{"lat":45.545583,"lng":12.314963},"importance":4},{"id":"IT1388","name":"Gagliole","type":"rail","geo":{"lat":43.220388,"lng":13.07518},"importance":4},{"id":"IT1389","name":"Gaibanella","type":"rail","geo":{"lat":44.77807,"lng":11.67134},"importance":4},